id,name,formatted_address,lat,lng,types,rating,user_rating_count
ChIJUXs9RXGr0xQR9prRUavmLKY,ÇABA GRUP Madencilik Agrega Tesisleri,"Sarıdeğirmen, 06860 Haymana/Ankara, Türkiye",39.5029192,32.4251948,"[""point_of_interest"", ""establishment""]",,
ChIJG2DyYuSr0xQRRMuhuQiF5l8,Sarı Değirmen İlkokulu,"Sarıdeğirmen, 06860 Haymana/Ankara, Türkiye",39.509034,32.440216,"[""primary_school"", ""school"", ""point_of_interest"", ""establishment""]",,
ChIJw46p9uSr0xQRCeP7naLKM_c,Sarıdeğirmen Köyü Cami,"Sarıdeğirmen, 06860 Haymana/Ankara, Türkiye",39.508972,32.439285,"[""mosque"", ""place_of_worship"", ""point_of_interest"", ""establishment""]",4.6,10
ChIJ99Omvgas0xQR3RNWcIuXGLs,Sarıdeğirmen Köprüsü,"Sarıdeğirmen, Sarıdeğirmen Köprüsü, 06860 Haymana/Ankara, Türkiye",39.493663999999995,32.439935,"[""point_of_interest"", ""establishment""]",3.9,8
ChIJN_8L8LCr0xQR_VQj8i2Yb7o,Eren Çelik,"Sarıdeğirmen, 06860 Haymana/Ankara, Türkiye",39.5127904,32.4433941,"[""point_of_interest"", ""establishment""]",5,4
ChIJU5l-l7-n0xQR_YyRcQXbi8A,Ela Garden Kır Bahçesi,"Dereköy, 06860 Haymana/Ankara, Türkiye",39.4987257,32.5663908,"[""restaurant"", ""food"", ""point_of_interest"", ""establishment""]",,
ChIJj7rDCpen0xQRajPDB7MgEYs,Dereköy Cami,"Dereköy, 06860 Haymana/Ankara, Türkiye",39.514964,32.569722,"[""mosque"", ""place_of_worship"", ""point_of_interest"", ""establishment""]",4.3,6
ChIJ5wT6slen0xQR1V5c4yTOcfg,BÖLÜKBAŞI TARIM,"Dereköy, 06860 Haymana/Ankara, Türkiye",39.513892299999995,32.5731515,"[""point_of_interest"", ""establishment""]",5,13
ChIJWbYjY6-n0xQROkvJTo99t8U,Dereköy,"Dereköy, 06860 Haymana/Ankara, Türkiye",39.501554999999996,32.574805999999995,"[""bus_stop"", ""transit_station"", ""point_of_interest"", ""establishment""]",,
ChIJ4ZciDLSn0xQRWaH8qGuPNK0,Dereköy Çıkış,"Dereköy, 06860 Haymana/Ankara, Türkiye",39.49917,32.56511,"[""bus_stop"", ""transit_station"", ""point_of_interest"", ""establishment""]",,
ChIJKzsmhqWn0xQRHfhu4FRIIcM,Dereköy,"Dereköy, 06860 Haymana/Ankara, Türkiye",39.501829,32.574729999999995,"[""bus_stop"", ""transit_station"", ""point_of_interest"", ""establishment""]",,
ChIJX06aCrSn0xQRlJVXj0Mkhy0,Dereköy Çıkış,"Dereköy, 06860 Haymana/Ankara, Türkiye",39.49940000000001,32.566075,"[""bus_stop"", ""transit_station"", ""point_of_interest"", ""establishment""]",,
ChIJ6eZuVben0xQReFnZ-Y1Kz2A,Dereköy Yolu,"Dereköy, 06860 Haymana/Ankara, Türkiye",39.504563,32.565438,"[""bus_stop"", ""transit_station"", ""point_of_interest"", ""establishment""]",,
ChIJlcCfVben0xQRlic_MQclh3k,Dereköy Yolu,"Dereköy, 06860 Haymana/Ankara, Türkiye",39.504563,32.565373,"[""bus_stop"", ""transit_station"", ""point_of_interest"", ""establishment""]",,
ChIJH-5ddpen0xQRUOUxi08REQ4,Dereköy,"Dereköy, 06860 Haymana/Ankara, Türkiye",39.514828,32.570240999999996,"[""bus_stop"", ""transit_station"", ""point_of_interest"", ""establishment""]",,
ChIJr9Trdpen0xQRIUkNAuKL4AY,Dereköy,"Dereköy, 06860 Haymana/Ankara, Türkiye",39.514907,32.570259,"[""bus_stop"", ""transit_station"", ""point_of_interest"", ""establishment""]",,
ChIJA3BRJQGh0xQRfST_1Qld6NY,Küme evleri,"Boyalık, FMX4+7Q, 06830 Gölbaşı/Ankara, Türkiye",39.4982539,32.6570244,"[""condominium_complex"", ""point_of_interest"", ""establishment""]",1,1
ChIJ0Siln4Kg0xQR4m2mqtM5aec,selamoglu ciftligi,"boyalık köyü yolu selamoglu ciftligi, Boyalık, 06830 gölbaşı/Gölbaşı/Ankara, Türkiye",39.501633999999996,32.663187,"[""stable"", ""point_of_interest"", ""establishment""]",4.5,13
ChIJ1fkLlIah0xQRyUoUvZUNWGo,Tamer bağ evi,"Boyalık, küme evleri, 06450 Gölbaşı/Ankara, Türkiye",39.4987269,32.6572928,"[""picnic_ground"", ""point_of_interest"", ""establishment""]",,
ChIJ1c10bwCh0xQRiBGb3RChjfs,Salman Baba,"Boyalık, FMX4+7Q, 06830 Gölbaşı/Ankara, Türkiye",39.499055000000006,32.6585102,"[""garden"", ""park"", ""point_of_interest"", ""establishment""]",5,1
ChIJaUPEBoOg0xQRJfli3--S2bE,Küme Evleri̇,"Boyalık, 06830 Gölbaşı/Ankara, Türkiye",39.498755,32.664242,"[""bus_stop"", ""transit_station"", ""point_of_interest"", ""establishment""]",,
ChIJNYYnB4Og0xQRJ3LyUpRDLME,Küme Evleri̇,"Boyalık, 06830 Gölbaşı/Ankara, Türkiye",39.498742,32.664301,"[""bus_stop"", ""transit_station"", ""point_of_interest"", ""establishment""]",,
ChIJ5f_vRgAL0xQReKzMpRZLbS8,AVUKATIN BAHÇESİ,"Dikilitaş, Boyalık Köyü Yolu, 06830 Gölbaşı/Ankara, Türkiye",39.5126321,32.661627800000005,"[""garden"", ""park"", ""point_of_interest"", ""establishment""]",,
ChIJQ4zG8IZ10xQRMkfpuV8oFFA,Koparıcı Besi Çiftliği,"Kırıklı, küme evleri no 120, 06830 Gölbaşı/Ankara, Türkiye",39.513155,32.779496699999996,"[""farm"", ""point_of_interest"", ""establishment""]",,
ChIJXc5BcXh20xQRQIPvAW1X8BU,Selametli Hakan Ulger Ilkokulu ve Ortaokulu,"Selametli Mah., Gölbaşı Merkez, Gölbaşı, Ankara, Selametli Şehit Emrah, 06830 Gölbaşı/Ankara, Türkiye",39.485068,32.808916499999995,"[""primary_school"", ""school"", ""point_of_interest"", ""establishment""]",,
ChIJYZ2IkH520xQR2CUL-V_4724,Arif Nihat Asya Kültür Merkrzi,"Selametli Şehit Emrah, 06830 Gölbaşı/Ankara, Türkiye",39.4883945,32.8133421,"[""cultural_center"", ""point_of_interest"", ""establishment""]",4.4,8
ChIJm4vV1dd10xQRanU7i7weSMM,Selametli Cami,"Selametli Şehit Emrah, 06830 Gölbaşı/Ankara, Türkiye",39.485839,32.808408799999995,"[""mosque"", ""place_of_worship"", ""point_of_interest"", ""establishment""]",4.8,11
ChIJQ5dCxE130xQRJ0BsinuKnQA,Selametli Musab Bin Umeyr Camii,"Selametli Şehit Emrah, Şht. Emrah, 06830 Gölbaşı/Ankara, Türkiye",39.486698,32.809714299999996,"[""mosque"", ""place_of_worship"", ""point_of_interest"", ""establishment""]",5,3
ChIJC1JTLX920xQR2Gf0EIfG2J8,Selametli Belediyesi,"Selametli Şehit Emrah Mh. Pk:06830 Gölbaşı/ankara, Selametli Şehit Emrah, 06830 Gölbaşı/Ankara, Türkiye",39.48767,32.810558,"[""point_of_interest"", ""establishment""]",4,4
ChIJb21YJgB30xQRPYWZzTfe-54,Selametli Aile Sağlığı Merkezi,"Selametli Şehit Emrah, 06830 Gölbaşı/Ankara, Türkiye",39.4884013,32.8134128,"[""health"", ""point_of_interest"", ""establishment""]",,
ChIJseOzna5r0xQRh0KVOQ01Sb0,YALÇIN'IN VAYKİ VAY ÇİFTLİĞİ,"Mahmatlıbahçe, Küme Evler Sokağı, 06000 Gölbaşı/Ankara, Türkiye",39.5064539,32.8394264,"[""garden"", ""park"", ""point_of_interest"", ""establishment""]",,
ChIJ35O303120xQR5R5GnjNHVoo,Selametli Sağlık Ocağı,"Selametli Şehit Emrah, 06830 Gölbaşı/Ankara, Türkiye",39.488949999999996,32.81458,"[""bus_stop"", ""transit_station"", ""point_of_interest"", ""establishment""]",,
ChIJRZgg6H520xQRFwNCafAVDaA,Keskin Market,"Selametli Şehit Emrah, 06830 Gölbaşı/Ankara, Türkiye",39.488372999999996,32.812080099999996,"[""grocery_store"", ""point_of_interest"", ""food_store"", ""store"", ""food"", ""establishment""]",,
ChIJwSUIo0130xQREetnuciO2ko,Mahmatlibahce mah.kume evleri,"Mahmatlıbahçe, 06830 Gölbaşı/Ankara, Türkiye",39.507621199999996,32.839099,"[""condominium_complex"", ""point_of_interest"", ""establishment""]",3.5,2
ChIJL9i21H120xQRNRnJ7h2EqYI,Selametli Sağlık Ocağı,"Selametli Şehit Emrah, 06830 Gölbaşı/Ankara, Türkiye",39.48883000000001,32.814375,"[""transit_station"", ""point_of_interest"", ""establishment""]",,
ChIJQ7qsXgB30xQRz5IRYn8hO4Y,Orhan Ağanın Malikhanesi,"Mahmatlıbahçe, 06830 Gölbaşı/Ankara, Türkiye",39.5071206,32.8357066,"[""garden"", ""park"", ""point_of_interest"", ""establishment""]",5,2
ChIJJcbniYd20xQRhk-39PwMphU,Tepebaşı,"Selametli Şehit Emrah, 06830 Gölbaşı/Ankara, Türkiye",39.489999999999995,32.81796,"[""bus_stop"", ""transit_station"", ""point_of_interest"", ""establishment""]",,
ChIJ2XtElB130xQRBrtyNXadMm4,Hamdı Ağanın Çiftliği,"Mahmatlıbahçe, 06830 Gölbaşı/Ankara, Türkiye",39.5112379,32.8355417,"[""condominium_complex"", ""point_of_interest"", ""establishment""]",,
ChIJHVtzLX920xQR7y3mJMdPeoU,Eski Belediye,"Selametli Şehit Emrah, 06830 Gölbaşı/Ankara, Türkiye",39.48779,32.810649999999995,"[""bus_stop"", ""transit_station"", ""point_of_interest"", ""establishment""]",,
ChIJSfjQhH520xQR1z1v0V29rzk,Çocuk Bahçesi,"Selametli Şehit Emrah, 06830 Gölbaşı/Ankara, Türkiye",39.488499999999995,32.813595,"[""park"", ""point_of_interest"", ""establishment""]",3.3,4
ChIJS-dgKnx20xQRKtZIsNwWhqg,Selametli Sağlık Ocağı,"Selametli Şehit Emrah, 06830 Gölbaşı/Ankara, Türkiye",39.48871,32.81417,"[""bus_stop"", ""transit_station"", ""point_of_interest"", ""establishment""]",,
ChIJjU4BYQh30xQRD9ImZ1XF2C0,Altunkaya Garden,"Mahmatlıbahçe, Küme evleri caddesi no 304, 06450 Gölbaşı/Ankara, Türkiye",39.507962899999995,32.8389024,"[""general_contractor"", ""point_of_interest"", ""establishment""]",5,2
ChIJyZbRiYd20xQRsX3TbJsKy_A,Tepebaşı,"Selametli Şehit Emrah, 06830 Gölbaşı/Ankara, Türkiye",39.49006,32.81782,"[""bus_stop"", ""transit_station"", ""point_of_interest"", ""establishment""]",,
ChIJ9XK05sx30xQRMYuI3YhsImg,Kavuncu,"Selametli Şehit Emrah, 06830 Gölbaşı/Ankara, Türkiye",39.4910717,32.8133805,"[""point_of_interest"", ""establishment""]",5,1
ChIJsdx61j130xQRVEj3P3ItvD8,Özcan Dinlenme Tesisleri,"Bezirhane, Ankara Konya Yolu, 06830 Gölbaşı/Ankara, Türkiye",39.4938217,32.8699017,"[""rest_stop"", ""point_of_interest"", ""establishment""]",4.2,183
ChIJr5HWfz530xQRUFwp68yu0Nw,Sunpet,"Bezirhane, Ankara Konya Yolu 53. Km D:53. Km, 06830 Gölbaşı/Ankara, Türkiye",39.4938217,32.8705573,"[""gas_station"", ""point_of_interest"", ""establishment""]",3.6,31
ChIJm8aUPQB30xQR5P_toMqNpHs,GEL-GÖR Lokantası,"Bezirhane, 06830 Gölbaşı/Ankara, Türkiye",39.4941153,32.8703783,"[""turkish_restaurant"", ""restaurant"", ""food"", ""point_of_interest"", ""establishment""]",4.2,30
ChIJV96UwzZ30xQRCFX_jOugP_I,Starpet-bediroğlu Petrol,"Bezirhane, 06830 Gölbaşı/Ankara, Türkiye",39.5036566,32.87179,"[""gas_station"", ""point_of_interest"", ""establishment""]",4,31
ChIJT6fqBhR30xQRadPJhf_wekw,ELVAN YAPI MARKET / HAZIR BETON,"Bezirhane, Serpme küme evleri 11\A, 06830 Gölbaşı/Ankara, Türkiye",39.4873141,32.870933199999996,"[""general_contractor"", ""point_of_interest"", ""establishment""]",4.6,29
ChIJIRqI1T130xQRlUxSrsVtbQA,AYGAZ,"Bezirhane, Ankara Konya Yolu 53. Km, 06830 Gölbaşı/Ankara, Türkiye",39.493943,32.870284,"[""point_of_interest"", ""establishment""]",3.3,14
ChIJnbtf3TZ30xQR9A1428xE_R8,Seypet,"Bezirhane, 06830 Gölbaşı/Ankara, Türkiye",39.5036343,32.8719731,"[""gas_station"", ""point_of_interest"", ""establishment""]",3.9,17
ChIJ84uVshZ30xQRFaSg4FCw0go,Termo-özdemir Petrol,"Bezirhane, Ankara Konya Yolu No:33, 06830 Gölbaşı/Ankara, Türkiye",39.487559999999995,32.869715,"[""gas_station"", ""point_of_interest"", ""establishment""]",4.5,11
ChIJyarjQQJ30xQRGT7-GI6MICo,Bezirhane MEZARLIĞI,"Bezirhane mah Mezarlığı, Bezirhane, 06830 Gölbaşı/Ankara, Türkiye",39.4842904,32.8549965,"[""cemetery"", ""point_of_interest"", ""establishment""]",,
ChIJVbyL2zZ30xQR9oSucZqCZsg,Oto Lastik,"Bezirhane, Ankara Konya Yolu, 06830 Gölbaşı/Ankara, Türkiye",39.503493,32.871533899999996,"[""auto_parts_store"", ""car_repair"", ""store"", ""point_of_interest"", ""establishment""]",5,2
ChIJs7mf0RZ30xQR835M1MfHmTM,Uzumer Oto Lastik,"No:18/A, Bezirhane, Ankara Konya Yolu, 06830 Gölbaşı/Ankara, Türkiye",39.48832,32.868207999999996,"[""auto_parts_store"", ""car_repair"", ""store"", ""point_of_interest"", ""establishment""]",4.2,5
ChIJJfkLTAB30xQRTw9tF8V8Uvo,Bereket Farm,"Bezirhane, FVM5+VX, 06830 Gölbaşı/Ankara, Türkiye",39.4840526,32.8593158,"[""garden"", ""park"", ""point_of_interest"", ""establishment""]",,
ChIJDVmYwzZ30xQR42E3F-VQrcg,Kurugöl Akaryakıt,"Bezirhane Mh, Ankara Konya Yolu, 06830 Gölbaşı/Ankara, Türkiye",39.5038402,32.8716304,"[""gas_station"", ""point_of_interest"", ""establishment""]",1,1
ChIJSRpBhnF30xQRxSazCR26TTs,ÖZCAN YAPI MARKET,"Bezirhane, Küme evleri no 214+, 06830 Gölbaşı/Ankara, Türkiye",39.496639699999996,32.873104,"[""store"", ""point_of_interest"", ""establishment""]",4.2,5
ChIJiUVvXBF30xQRNK6cElRmUcc,Sanoil,"Bezirhane, Ankara Konya Yolu No:14, 06830 Gölbaşı/Ankara, Türkiye",39.487124099999996,32.869523,"[""gas_station"", ""point_of_interest"", ""establishment""]",3.4,9
ChIJ0YctxTZ30xQRu3QMGDWCOqA,Türk Park,"Bezirhane, 06830 Gölbaşı/Ankara, Türkiye",39.503774,32.87133,"[""gas_station"", ""point_of_interest"", ""establishment""]",,
ChIJywhnphZ30xQRuVrFBKq9xB0,Yıldızlar SSS Holding,"Bezirhane, Ankara Konya Yolu No:38, 06830 Gölbaşı/Ankara, Türkiye",39.488023999999996,32.870221799999996,"[""car_repair"", ""point_of_interest"", ""establishment""]",,
ChIJFwdM7SF30xQRRoyYfNniu3Q,Güçlü Bey Konağı,"Bezirhane, FVP4+4R, 06830 Gölbaşı/Ankara, Türkiye",39.4853008,32.8570256,"[""point_of_interest"", ""establishment""]",,
ChIJpTkLvSt30xQRJ1JcCXG6co4,Özcan Besi Çiftliği,"Bezirhane, FVWF+JH, 06830 Gölbaşı/Ankara, Türkiye",39.4966169,32.8739117,"[""ranch"", ""farm"", ""food"", ""point_of_interest"", ""government_office"", ""establishment""]",,
ChIJw6gH8Dd30xQRqOn-XbCMp2k,Serpme evler,"Bezirhane, 06830 Gölbaşı/Ankara, Türkiye",39.496583799999996,32.87423,"[""store"", ""point_of_interest"", ""establishment""]",,
ChIJa_Kf4o170xQRwXzL2Hz9lMo,Golden Gate çiftliği,"Ankara, Yöreli, küme evleri no :195, 06000 Bala/Ankara, Türkiye",39.51157320000001,32.9669496,"[""ranch"", ""farm"", ""point_of_interest"", ""establishment""]",5,3
ChIJkyWnGmp80xQR6tyG3IDaeC0,Yeniköy Mezarlığı,"Yeniköy, 06720 Balâ/Ankara, Türkiye",39.488414999999996,33.0105899,"[""cemetery"", ""point_of_interest"", ""establishment""]",5,4
ChIJR9uHUol90xQR0mEmYSMG54U,Bala Detay Halı yıkama,"Yeniköy, Küme evler no. 17/A, 06720 Bala/Ankara, Türkiye",39.492447899999995,33.0155472,"[""laundry"", ""point_of_interest"", ""establishment""]",5,2
ChIJ_8TedPx90xQRsn_MJGZ8eQ0,Biyotem Tarım Ve Hayvancılık Çiftliği,"Abazlı, Küme evleri No:416 1-2, 06720 Bala/Ankara, Türkiye",39.5127101,33.0618061,"[""ranch"", ""farm"", ""point_of_interest"", ""establishment""]",5,2
ChIJU-gRYTqD1BQR0jGuIzCiD0s,Çiğdemli Cami,"Çiğdemli, 06720 Balâ/Ankara, Türkiye",39.488731,33.1382689,"[""mosque"", ""place_of_worship"", ""point_of_interest"", ""establishment""]",5,5
ChIJ0Xq05CSD1BQRDF6FWYR6vdw,Besi Çiftliği,"Çiğdemli, 06720 Balâ/Ankara, Türkiye",39.488814999999995,33.1330568,"[""farm"", ""point_of_interest"", ""establishment""]",3,2
ChIJsRumntiC1BQRIi6O6DDSO0E,İnan Çiftliği,"Çiğdemli, 06720 Balâ/Ankara, Türkiye",39.4913075,33.123599299999995,"[""place_of_worship"", ""point_of_interest"", ""establishment""]",5,1
ChIJJcQ6JQCD1BQRm3Q_4-NAjBM,KEMAL DEDE BESİ ÇİFTLİĞİ,"Çiğdemli, 06720, 06010 Bala/Ankara, Türkiye",39.4949563,33.1334979,"[""farm"", ""point_of_interest"", ""establishment""]",5,2
ChIJsSf3u-yD1BQR5ANfDAhRexI,ÜNSAL Besi Çiftliği,"Ankara, Çiğdemli, 06000 Bala/Ankara, Türkiye",39.4963553,33.141022299999996,"[""ranch"", ""farm"", ""food"", ""point_of_interest"", ""government_office"", ""establishment""]",5,4
ChIJbw9lWTqD1BQREpLBkWol1Qk,Çocuk Bahçesi,"Çiğdemli, 06720 Balâ/Ankara, Türkiye",39.488253,33.138280099999996,"[""park"", ""point_of_interest"", ""establishment""]",5,2
ChIJY8arVcuD1BQRBMjkeMeeIXU,Cebrailoğulları Çiftliği,"Çiğdemli, Küme evleri numara 33, 06720 Bala/Ankara, Türkiye",39.488951799999995,33.1245018,"[""ranch"", ""farm"", ""point_of_interest"", ""establishment""]",5,14
ChIJ7SG8CKKc1BQR4FnWASZChJw,Rigips Alçıtaşı Ocağı,"Unnamed Rd, Çatalören/, Bahçekaradalak, 06720 Bala/Ankara, Türkiye",39.509574199999996,33.162429599999996,"[""point_of_interest"", ""establishment""]",3.8,5
ChIJBduStUyc1BQRh4vP2rBTmK0,Bahce Karadalak Koyu Muhtarligi,"Bahçekaradalak, 06720 Balâ/Ankara, Türkiye",39.507003,33.188288,"[""hotel"", ""lodging"", ""point_of_interest"", ""establishment""]",4.5,11
ChIJJ61h52ub1BQRMzk9slcJw84,Bahçe Karadalak Köyü Cami,"Bahçekaradalak, 06720 Balâ/Ankara, Türkiye",39.505727,33.18633,"[""mosque"", ""place_of_worship"", ""point_of_interest"", ""establishment""]",4.6,17
ChIJMwbfpEOb1BQRZm3WjcZ24sc,ASKİ P4 ISTASYONU,"Bahçekaradalak, 06720 Bala/Balâ/Ankara, Türkiye",39.4999659,33.1835678,"[""point_of_interest"", ""establishment""]",5,1
ChIJq6qq6qqE1BQRgZk5nlAzdKw,Cataloren Koyu Muhtarligi,"Merkez, Çatalören Köyü, Bala, Ankara, Çatalören, 06720 Bala/Ankara, Türkiye",39.4868495,33.171363899999996,"[""hotel"", ""lodging"", ""point_of_interest"", ""establishment""]",5,3
ChIJcdga1Gyb1BQRAGwWvDucriw,Bahçekaradalak Köyü,"Bahçekaradalak, 06720 Balâ/Ankara, Türkiye",39.507003,33.188288,"[""point_of_interest"", ""establishment""]",5,1
ChIJ_-RZWKuE1BQRXDRZYaYY71M,Çatalören Köyü Cami,"Çatalören, 06720 Balâ/Ankara, Türkiye",39.486736,33.1743679,"[""mosque"", ""place_of_worship"", ""point_of_interest"", ""establishment""]",4.6,10
ChIJFysGPD6b1BQRRLUIMWufzv4,ASKİ P3 POMPA ISTASYONU,"Bahçekaradalak, 06720 Balâ/Ankara, Türkiye",39.498424299999996,33.1952475,"[""corporate_office"", ""point_of_interest"", ""establishment""]",5,1
ChIJbQxbGIeb1BQR5ToUnmGJTD4,Entegre alçı ocağı,"Sırapınar, Unnamed Road, Bahçekaradalak, 06720 Bala/Ankara, Türkiye",39.5014598,33.2403122,"[""point_of_interest"", ""establishment""]",,
ChIJkS35RsKa1BQRH5Je4qpo-K4,ASKİ P2 ISTASYONU,"Bahçekaradalak, 06720 Balâ/Ankara, Türkiye",39.4867997,33.229103699999996,"[""corporate_office"", ""point_of_interest"", ""establishment""]",,
ChIJ0QUqI-2Q1BQRuule7svtIWI,Bala Tarım Ve Hayvancılık,"Sırapınar, 06720 Balâ/Ankara, Türkiye",39.500656899999996,33.282483,"[""farm"", ""point_of_interest"", ""establishment""]",4.4,58
ChIJeYbfJO2Q1BQRdtd3K4t29IA,Çiftlik Caffe,"Sırapınar, 06720 Balâ/Ankara, Türkiye",39.5008177,33.282134899999996,"[""cafe"", ""food"", ""point_of_interest"", ""establishment""]",,
ChIJl2ta0uyQ1BQR2MR2deJnKV8,Bala Tarım Ve Hayvancılık 2,"Sırapınar, 06720 Balâ/Ankara, Türkiye",39.50202,33.281459999999996,"[""bus_stop"", ""transit_station"", ""point_of_interest"", ""establishment""]",,
ChIJZwwOJe2Q1BQRSRlC3lbMSEA,Seç,"Sırapınar, 06720 Balâ/Ankara, Türkiye",39.500886,33.2820694,"[""point_of_interest"", ""establishment""]",,
ChIJ-eiqLJOQ1BQR60YfWUFuyB4,Bala Tarım Ve Hayvancılık 1,"Sırapınar, 06720 Balâ/Ankara, Türkiye",39.501954999999995,33.281314,"[""bus_stop"", ""transit_station"", ""point_of_interest"", ""establishment""]",5,1
ChIJoQMqfdur0xQRSdAhnAPI7WI,Elvadi tarım hayvancılık,"Türkhüyük, Küme Evleri no :25، 06860 Haymana/Ankara, Türkiye",39.5365517,32.4160171,"[""ranch"", ""farm"", ""point_of_interest"", ""establishment""]",4.8,16
ChIJsQg_Ja-r0xQRwe9tOFtO6yA,Türkhüyük Köyü Mezarlığı,"Türkhüyük, 06860 Haymana/Ankara, Türkiye",39.5372477,32.4078799,"[""cemetery"", ""point_of_interest"", ""establishment""]",,
ChIJCXbbgYep0xQRCra2tMYStxU,Durutlar Köyü Cami,"Durutlar, 06860 Haymana/Ankara, Türkiye",39.539386,32.4470171,"[""mosque"", ""place_of_worship"", ""point_of_interest"", ""establishment""]",3.6,7
ChIJ77_Q3Yap0xQRI7ddt2IfSDY,Durutlar Köyü Mezarlığı,"Durutlar, 06860 Haymana/Ankara, Türkiye",39.5358667,32.451147,"[""cemetery"", ""point_of_interest"", ""establishment""]",,
ChIJj8eYZACp0xQRSunu8Z9jvLA,Starbucks,"Sarıgöl, GFGJ+W6, 06860 Haymana/Ankara, Türkiye",39.5273253,32.480531899999995,"[""coffee_shop"", ""cafe"", ""food_store"", ""store"", ""food"", ""point_of_interest"", ""establishment""]",3.5,2
ChIJGZxtYa-p0xQRMDSPgzhtbug,Sarıgöl Cami,"Sarıgöl, 06860 Haymana/Ankara, Türkiye",39.5278396,32.4809105,"[""mosque"", ""place_of_worship"", ""point_of_interest"", ""establishment""]",4.3,12
ChIJI1S-5kep0xQReyqGXjkqX8U,Hasan Bölükbaşı,"Sarıgöl, küme evleri, 06860 Haymana/Ankara, Türkiye",39.531387099999996,32.4815312,"[""housing_complex"", ""point_of_interest"", ""establishment""]",5,2
ChIJsSmy9KWp0xQReQcUBAiHRQ8,Sarıgül İlkokulu,"Sarıgöl, 06860 Haymana/Ankara, Türkiye",39.5277813,32.4804915,"[""primary_school"", ""school"", ""point_of_interest"", ""establishment""]",,
ChIJVeD9N5Sp0xQRXit5LfWgyOw,DOĞANLAR KONAĞI,"Sarıgöl, GFHH+7Q, 06860 Haymana/Ankara, Türkiye",39.5281443,32.4794,"[""apartment_building"", ""point_of_interest"", ""establishment""]",5,2
ChIJG16IZK-p0xQRrnb5pw5uoJg,Çelik Market,"Sarıgöl, 06860 Haymana/Ankara, Türkiye",39.5280139,32.4810377,"[""grocery_store"", ""food_store"", ""store"", ""food"", ""point_of_interest"", ""establishment""]",2.7,3
ChIJ41afOQCp0xQRi06ETGOY1j4,Fevzi can öztürk,"Sarıgöl, GFHJ+6V, 06860 Haymana/Ankara, Türkiye",39.5280164,32.4821254,"[""apartment_building"", ""point_of_interest"", ""establishment""]",,
ChIJVSvISwCp0xQRB8I1Vfacr6k,ÖMER FARUK ÖZTÜRK,"Sarıgöl, 06860 Haymana/Ankara, Türkiye",39.528019199999996,32.4822019,"[""apartment_building"", ""point_of_interest"", ""establishment""]",,
ChIJc2q71iSp0xQRBHcpOCMpwy8,Nihat Özsoy,"Sarıgöl, küme evleri, 06860 Haymana/Ankara, Türkiye",39.532536,32.480309399999996,"[""ranch"", ""farm"", ""point_of_interest"", ""establishment""]",5,1
ChIJn8d0g-Gp0xQRnulkf4ParEo,YILMAZ AĞA KONAĞI,"Sarıgöl, Küme Evleri, 06860 Haymana/Ankara, Türkiye",39.531191299999996,32.483310599999996,"[""ranch"", ""farm"", ""point_of_interest"", ""establishment""]",,
ChIJ47JEJGqo0xQROfQz2pQ7b0U,Karaömer Köyü Cami,"Karaömerli, 06860 Haymana/Ankara, Türkiye",39.525103,32.5164398,"[""mosque"", ""place_of_worship"", ""point_of_interest"", ""establishment""]",4.6,9
ChIJVVUVM2qo0xQRDYB4NZhFlsU,Karaömerli İöo,"Karaömerli, 06860 Haymana/Ankara, Türkiye",39.525099,32.5173845,"[""university"", ""point_of_interest"", ""establishment""]",5,1
ChIJpYfsb2qo0xQROKLKztn3tfs,Karaömer Köyü Mezarlığı,"Karaömerli, 06860 Haymana/Ankara, Türkiye",39.5277065,32.5162352,"[""cemetery"", ""point_of_interest"", ""establishment""]",4.5,2
ChIJI3GMwuCp0xQREczpTd-ewmY,Karaomerli sokaklar,"Karaömerli, 06860 Haymana/Ankara, Türkiye",39.5253683,32.516269,"[""general_contractor"", ""point_of_interest"", ""establishment""]",5,1
ChIJU_e76vSn0xQRAxfHBcgjPrY,Gavurkale Aniti,"Polatlı Yolu Temelli Bucağı 1. Km., Temelli, Polatlı, Ankara, Dereköy, 06860 Haymana/Ankara, Türkiye",39.531230699999995,32.558430699999995,"[""historical_place"", ""point_of_interest"", ""establishment""]",4.3,30
ChIJoStgJnKn0xQRiOAbsIaqJcE,Komagene Etsiz Çiğ Köfte,"Durali Alıç, Şehitler Cd. 103/D, 06860 Mamak/Ankara, Türkiye",39.534333,32.554152,"[""restaurant"", ""food"", ""point_of_interest"", ""establishment""]",5,1
ChIJEYzo2bGn0xQRRt4jx2KNj58,Kara Ahmet Eren Çiftliği,"gavur kale karşısı, Dereköy, 06860 Haymana/Ankara, Türkiye",39.5284361,32.5546184,"[""farm"", ""point_of_interest"", ""establishment""]",,
ChIJdcBwN5Sn0xQRwAEsxNdYeM0,Dereköy Mezarlığı,"Dereköy, 06860 Haymana/Ankara, Türkiye",39.5173972,32.563964299999995,"[""cemetery"", ""point_of_interest"", ""establishment""]",,
ChIJaciJhHun0xQRUgyh6LW8bm4,Dereköy,"Dereköy, 06860 Haymana/Ankara, Türkiye",39.51948,32.59059,"[""bus_stop"", ""transit_station"", ""point_of_interest"", ""establishment""]",,
ChIJhy2MeHun0xQRflGuGp_syWY,Dereköy,"Dereköy, 06860 Haymana/Ankara, Türkiye",39.51936,32.59107,"[""bus_stop"", ""transit_station"", ""point_of_interest"", ""establishment""]",,
ChIJbUc6uJQJ0xQRUhoWAZyaobo,Duyar Kasap,"Başaran Cad, Oyaca Akarsu, Şht. Mükremin Cd., 06830 Gölbaşı/Ankara, Türkiye",39.5379241,32.609525,"[""butcher_shop"", ""point_of_interest"", ""food_store"", ""store"", ""food"", ""establishment""]",4.5,164
ChIJ-e8f2E0J0xQRC7jqz8mwmAc,Kültür Merkezi,"Oyaca Yeşilçam, 06830 Gölbaşı/Ankara, Türkiye",39.5402792,32.618147,"[""event_venue"", ""point_of_interest"", ""establishment""]",,
ChIJc3GYWZQJ0xQReY_aJu7nR08,Oyaca Cami,"Oyaca Akarsu, 06830 Gölbaşı/Ankara, Türkiye",39.5398846,32.6089333,"[""mosque"", ""place_of_worship"", ""point_of_interest"", ""establishment""]",4.5,27
ChIJ0U2ptZIJ0xQRIsh_Cnlw4Io,Oyaca Jandarma Karakol Komutanlığı,"Oyaca Yeşilçam, Ankara Blv., 06830 Gölbaşı/Ankara, Türkiye",39.535548999999996,32.615179,"[""point_of_interest"", ""establishment""]",,
ChIJgUP8_3tB0xQRiZh_S2Ldjx4,Oyaca Cok Programli Lisesi,"Oyaca Akarsu, Mükremin Başaran Cad. No:22, 06830 Gölbaşı/Ankara, Türkiye",39.540475,32.616544,"[""secondary_school"", ""school"", ""point_of_interest"", ""establishment""]",,
ChIJ69LIbpMJ0xQRhMD5ogx7Bvk,Şehit Komando Onbaşı Mükremin Başaran İlkokulu,"Oyaca Yeşilçam, 06860 Gölbaşı/Ankara, Türkiye",39.537611,32.611925899999996,"[""primary_school"", ""school"", ""point_of_interest"", ""establishment""]",,
ChIJcYTwurhN0xQRjb-o5X85lMs,Uzunerler Hububat,"Şehit Mükremin Başaran best oil uzunerler petrol Cad. No:136, Oyaca Akarsu, 06320 Gölbaşı/Ankara, Türkiye",39.529798,32.598732,"[""point_of_interest"", ""establishment""]",,
ChIJt576mRhB0xQRzYWtuqweJ14,Oyaca Eczanesi,"Başaran Cad, Oyaca Akarsu, Şht. Mükremin Cd. No:62, 06830 Gölbaşı/Ankara, Türkiye",39.5384574,32.6110073,"[""pharmacy"", ""health"", ""point_of_interest"", ""store"", ""establishment""]",5,15
ChIJp4pPQlcJ0xQRtoqJkIzspZ8,BİM,"Başaran Cad, Oyaca Yeşilçam, Şht. Mükremin Cd. No 17/A-B, 06830 Gölbaşı/Ankara, Türkiye",39.5381691,32.6106692,"[""supermarket"", ""grocery_store"", ""point_of_interest"", ""food_store"", ""store"", ""food"", ""establishment""]",3.7,21
ChIJ-2Ygb9sJ0xQRHd8edOijIGg,Bizimgaz-uzunerler Petrol,"Oyaca Akarsu, 06830 Gölbaşı/Ankara, Türkiye",39.529804,32.598603,"[""gas_station"", ""point_of_interest"", ""establishment""]",4.8,4
ChIJT88_Z9sJ0xQRwqkRrmg1mz0,Best Oil-uzunerler Petrol,"İkizce Mh., 06830 Gölbaşı/Ankara, Türkiye",39.529787899999995,32.599108,"[""gas_station"", ""point_of_interest"", ""establishment""]",4.5,31
ChIJH8J5cJMJ0xQR5Emnr8ZMpX8,Oyaca So-asm,"Oyaca Yeşilçam, Şht. Mükremin Cd., 06830 Gölbaşı/Ankara, Türkiye",39.53839,32.611511,"[""health"", ""point_of_interest"", ""establishment""]",,
ChIJgYyuMusJ0xQRYB6XXli7Ts4,Çınar Et Ürünleri,"Oyaca Yeşilçam, şehit mükremin başaran caddesi, 06830 Gölbaşı/Ankara, Türkiye",39.53738,32.6087212,"[""butcher_shop"", ""point_of_interest"", ""food_store"", ""store"", ""food"", ""establishment""]",4.8,116
ChIJC6zmRUgJ0xQRaAGiL3VG438,NAMALAN TARIM TOHUM ELEME TESİSİ,"OYACA UN FABRİKASI KARŞISI, Oyaca Yeşilçam, Rüzgarlı Sk. No:5, 06860 Gölbaşı/Ankara, Türkiye",39.534625000000005,32.6091506,"[""point_of_interest"", ""food"", ""establishment""]",4.8,4
ChIJN_jSOJIJ0xQRUnEs2Ddm1ew,Oyaca Mezarlığı,"Oyaca Yeşilçam, 06830 Gölbaşı/Ankara, Türkiye",39.539142,32.614664000000005,"[""cemetery"", ""point_of_interest"", ""establishment""]",,
ChIJo5pPCpYJ0xQR6MZbP_a1hL4,Oyaca halk pazarı,"başaran CAD, Oyaca Akarsu, Şht. Mükremin Cd. D:76a, 06680 Gölbaşı/Ankara, Türkiye",39.537782799999995,32.6092351,"[""point_of_interest"", ""food_store"", ""store"", ""food"", ""establishment""]",4.8,17
ChIJQzfFcQAJ0xQRTYQp1vnF69E,TARIM KREDİ KOOPERATİF MARKET,"Oyaca Yeşilçam, Oyaca Akarsu, 06830 Gölbaşı/Ankara, Türkiye",39.5364186,32.6072762,"[""point_of_interest"", ""food_store"", ""store"", ""food"", ""establishment""]",5,1
ChIJtSdsKOMJ0xQRI0WGCj_f6vk,Tuana Cafe ve Restaurant,"Oyaca Yeşilçam, Şht. Mükremin Cd., 06830 Gölbaşı/Ankara, Türkiye",39.5384233,32.6117899,"[""restaurant"", ""point_of_interest"", ""food"", ""establishment""]",4.4,56
ChIJRUdc5-oJ0xQRei7HLRoNhaQ,Tarım Kredi Kooperatifi,"Oyaca Yeşilçam, 06830 Gölbaşı/Ankara, Türkiye",39.536606,32.607535,"[""point_of_interest"", ""establishment""]",5,1
ChIJT-9Ke-UJ0xQRHPerQqkfSq4,F.C.A OTO LASTİK YOL YARDİM,"Oyaca Yeşilçam, 06830 Gölbaşı/Ankara, Türkiye",39.5382677,32.6111627,"[""car_repair"", ""point_of_interest"", ""establishment""]",5,34
ChIJF_MWaRYL0xQRZQeOyP-2gh4,Yaşapati köpek bakımevi,"Haymana, Yelilçam Mah, 06200 Haymana/Ankara, Türkiye",39.5273849,32.635831599999996,"[""point_of_interest"", ""establishment""]",5,6
ChIJvccXXjMK0xQRUnMF0QfN_vA,Göznur Konakları,"Oyaca Yeşilçam, 06830 Gölbaşı/Ankara, Türkiye",39.543566,32.644455,"[""bus_stop"", ""transit_station"", ""point_of_interest"", ""establishment""]",,
ChIJhejXZE4L0xQRkXr1o57CuEQ,Ankara Gölbaşı Oyaca Yeşilçam Para Kontrol Cihazı,"Oyaca Yeşilçam Mah No: 85338, Oyaca Yeşilçam, 06830 Gölbaşı/Ankara, Türkiye",39.5250252,32.6333973,"[""wholesaler"", ""point_of_interest"", ""store"", ""establishment""]",5,1
ChIJx1j0XTMK0xQRdVPdMZI7eYw,Göznur Konakları,"Oyaca Akarsu, 06830 Gölbaşı/Ankara, Türkiye",39.54367,32.644239999999996,"[""bus_stop"", ""transit_station"", ""point_of_interest"", ""establishment""]",,
ChIJ27nd230L0xQRgUh8OxnsRuo,Köseoğlu çiftliği boyalık,"Boyalık, 06830 Gölbaşı/Ankara, Türkiye",39.52933,32.6573354,"[""historical_landmark"", ""historical_place"", ""point_of_interest"", ""establishment""]",,
ChIJV11SfgAL0xQR3PyJb83Fwyw,Avukatın Bahçesi,"Boyalık, Boyalık Köyü Yolu, 06830 Gölbaşı/Ankara, Türkiye",39.532444,32.6568567,"[""garden"", ""park"", ""point_of_interest"", ""establishment""]",,
ChIJFZ0HXjMK0xQRsJkk0JKvD6M,Göznur Konakları,"Gölbaşı/Ankara, Türkiye",39.54363,32.644349999999996,"[""transit_station"", ""point_of_interest"", ""establishment""]",,
ChIJM9gOCS4K0xQR5n28LNtO7mc,Haymana Yolu,"Oyaca Yeşilçam, 06830 Gölbaşı/Ankara, Türkiye",39.541923,32.63811,"[""bus_stop"", ""transit_station"", ""point_of_interest"", ""establishment""]",,
ChIJTUsF4i0K0xQR7ft_RlxI70w,Haymana Yolu,"Oyaca Akarsu, 06830 Gölbaşı/Ankara, Türkiye",39.54215,32.638028999999996,"[""bus_stop"", ""transit_station"", ""point_of_interest"", ""establishment""]",,
ChIJk3Dvt8cL0xQRDy7IVZUzcgw,Ankara Hayvan Mezarlığı,"Dikilitaş, 06830 Gölbaşı/Ankara, Türkiye",39.5370589,32.686342499999995,"[""cemetery"", ""point_of_interest"", ""establishment""]",5,48
ChIJd-08ZlcL0xQRiyxbMKwHYIc,Bağ Bostan Hobi Bahçeleri,"Dikilitaş, Unnamed Road, 06830 Gölbaşı/Ankara, Türkiye",39.5198939,32.707203299999996,"[""garden"", ""park"", ""point_of_interest"", ""establishment""]",4.5,25
ChIJrZ88W8UL0xQR-Nj-F410hQs,Doğa tarım bahçeleri,"Dikilitaş, GPG3+CV, 06830 Gölbaşı/Ankara, Türkiye",39.526038299999996,32.7046333,"[""housing_complex"", ""point_of_interest"", ""establishment""]",4.8,12
ChIJOZVVGUh10xQRcN8PTYMqOkY,asca kent sitesi dikilitaş,"Dikilitaş, 06830 Gölbaşı/Ankara, Türkiye",39.54118630000001,32.7274884,"[""point_of_interest"", ""establishment""]",5,6
ChIJ4RV7rGN10xQRRFePt6BQ_Uo,sınırlı sorumlu asca kent konut yapı kooperatifi,"Dikilitaş, 06830 Gölbaşı/Ankara, Türkiye",39.5410622,32.727551999999996,"[""finance"", ""point_of_interest"", ""establishment""]",5,1
ChIJdSakxfhz0xQRh5FUNkDPhxw,Kırıklı Köyü Mezarlığı,"Kırıklı, 06830 Gölbaşı/Ankara, Türkiye",39.533052,32.8019281,"[""cemetery"", ""point_of_interest"", ""establishment""]",5,1
ChIJRZAUJP9z0xQRU23Y_64ZRsc,Kırıklı Mahallesi Muhtarlığı,"Kırıklı, 06830 Gölbaşı/Ankara, Türkiye",39.533485,32.8037962,"[""government_office"", ""point_of_interest"", ""establishment""]",,
ChIJlUIAo6pP0xQRljJKMBr0wpQ,ANAOKULU,"EYMİR MAHALLESİ TOKİ BLOKLARI VAN GÖLÜ CADDESİ, Kırıklı, 06830 Gölbaşı/Ankara, Türkiye",39.530052,32.808448999999996,"[""preschool"", ""child_care_agency"", ""school"", ""point_of_interest"", ""establishment""]",5,1
ChIJwRZWrvhz0xQRaqfe9pT2Xnw,Kırıklı Mahallesi,"Kırıklı, 06830 Gölbaşı/Ankara, Türkiye",39.53237000000001,32.8021387,"[""bus_stop"", ""transit_station"", ""point_of_interest"", ""establishment""]",,
ChIJr_G1Twd00xQRRN92XdkjRTM,Çocuk Bahçesi,"Kırıklı, 06830 Gölbaşı/Ankara, Türkiye",39.531358,32.80226,"[""park"", ""point_of_interest"", ""establishment""]",3,4
ChIJoQO8Uwd00xQRuffC7mlJvyE,Kırıklı Mahallesi Cami,"Kırıklı, 06830 Gölbaşı/Ankara, Türkiye",39.531535999999996,32.802566,"[""mosque"", ""place_of_worship"", ""point_of_interest"", ""establishment""]",,
ChIJXe-zqPhz0xQRWqekt9lnKQ4,Kırıklı Mahallesi,"Kırıklı, 06830 Gölbaşı/Ankara, Türkiye",39.532315,32.802164399999995,"[""transit_station"", ""point_of_interest"", ""establishment""]",,
ChIJCejvQAd00xQRQ61vFccLe5w,Kırıklı Son Durak,"Kırıklı, 06830 Gölbaşı/Ankara, Türkiye",39.53115700000001,32.801621,"[""bus_stop"", ""transit_station"", ""point_of_interest"", ""establishment""]",,
ChIJOX6_qPhz0xQRv_n12rlm6rg,Kırıklı Mahallesi,"Kırıklı, 06830 Gölbaşı/Ankara, Türkiye",39.53226,32.802189999999996,"[""bus_stop"", ""transit_station"", ""point_of_interest"", ""establishment""]",,
ChIJz9pWiTFx0xQR8mEYGysU3vU,Bahçeköy Cami,"Mahmatlıbahçe, 06830 Gölbaşı/Ankara, Türkiye",39.524741,32.840325,"[""mosque"", ""place_of_worship"", ""point_of_interest"", ""establishment""]",4,5
ChIJabq1Gy5x0xQR_8f_zfpIaNs,Mahmatlıbahçe Köyü Mezarlığı,"Mahmatlıbahçe, 06830 Gölbaşı/Ankara, Türkiye",39.5250765,32.8433534,"[""cemetery"", ""point_of_interest"", ""establishment""]",5,3
ChIJ1adOPfhx0xQRqpJyQ1NTKjs,Yıldırım Malikanesi,"Mahmatlıköy, 06000 Gölbaşı/Ankara, Türkiye",39.5329982,32.8328416,"[""farmstay"", ""lodging"", ""point_of_interest"", ""establishment""]",,
ChIJh9IAp0d30xQR0YauIxyA95I,SYGL Bahçe,"Mahmatlıbahçe, 06830 Gölbaşı/Ankara, Türkiye",39.515008099999996,32.831745,"[""garden"", ""park"", ""point_of_interest"", ""establishment""]",,
ChIJjf943DFx0xQRJfcCpcI9kGc,Bahçeköy,"Mahmatlıbahçe, 06830 Gölbaşı/Ankara, Türkiye",39.525566999999995,32.841744,"[""bus_stop"", ""transit_station"", ""point_of_interest"", ""establishment""]",,
ChIJs_dhCS5x0xQR4ym6x6wqIl8,Mahmatlı Bahçe,"Mahmatlıbahçe, 06830 Gölbaşı/Ankara, Türkiye",39.52383,32.84335,"[""bus_stop"", ""transit_station"", ""point_of_interest"", ""establishment""]",,
ChIJ5zmYCy5x0xQRdPxh7aBzK0Q,Mahmatlı Bahçe,"Mahmatlıbahçe, 06830 Gölbaşı/Ankara, Türkiye",39.52381,32.843489999999996,"[""bus_stop"", ""transit_station"", ""point_of_interest"", ""establishment""]",,
ChIJT_5lMcx20xQRKuph6VMosGU,Çoban Çeşmesi,"Mahmatlıbahçe, 06830 Gölbaşı/Ankara, Türkiye",39.517103,32.839396,"[""bus_stop"", ""transit_station"", ""point_of_interest"", ""establishment""]",,
ChIJyddSs8120xQRT2mg0uOsckE,Çoban Çeşmesi̇,"Mahmatlıbahçe, 06830 Gölbaşı/Ankara, Türkiye",39.517071,32.839478,"[""bus_stop"", ""transit_station"", ""point_of_interest"", ""establishment""]",,
ChIJVzvCCy5x0xQRKAYqHirrm_o,Mahmatlı Bahçe,"Mahmatlıbahçe, 06830 Gölbaşı/Ankara, Türkiye",39.5238209,32.843416600000005,"[""transit_station"", ""point_of_interest"", ""establishment""]",5,1
ChIJaZ5aRdxw0xQRmja5QBM3iwY,Yamaç Lokantası,"Soğulcak, 06830 Gölbaşı/Ankara, Türkiye",39.528909999999996,32.86128490000001,"[""restaurant"", ""food"", ""point_of_interest"", ""establishment""]",3.9,248
ChIJVYSuyeZw0xQRnrEwuTO4SNE,Mag Petrol,"Mahmatlıbahçe, Habaş, 06830 Gölbaşı/Ankara, Türkiye",39.5357406,32.8599086,"[""gas_station"", ""point_of_interest"", ""establishment""]",5,1
ChIJWxl1Utxw0xQRxyDQY9_YQU4,Maspet,"Soğulcak, 06830 Gölbaşı/Ankara, Türkiye",39.529143999999995,32.8609838,"[""gas_station"", ""point_of_interest"", ""establishment""]",4.4,5
ChIJocGms91w0xQRUshxpPKgxvA,Soil-asa Petrol,"Soğulcak, Ankara Konya Yolu, 06830 Gölbaşı/Ankara, Türkiye",39.529737999999995,32.861092000000006,"[""gas_station"", ""point_of_interest"", ""establishment""]",4.3,4
ChIJ15hOuOZw0xQRyqgADWTw7nE,Habaş,"Mahmatlıbahçe, 06830 Gölbaşı/Ankara, Türkiye",39.535827,32.860036099999995,"[""gas_station"", ""point_of_interest"", ""establishment""]",3.4,11
ChIJw6fNayZx0xQRZvaoRXsJhuY,Metay A.Ş. Soğuk Hava Deposu İşletmesi,"Mahmatlıbahçe, 06830 Gölbaşı/Ankara, Türkiye",39.5278239,32.8491582,"[""storage"", ""point_of_interest"", ""establishment""]",4.4,36
ChIJ08qNOgBx0xQRWi7FczGGTO4,Mahmatlıbahçe kümeevleri,"Mahmatlı, No: 72173, 06830 Gölbaşı/Ankara, Türkiye",39.528932499999996,32.8475222,"[""condominium_complex"", ""point_of_interest"", ""establishment""]",1,1
ChIJzTaiW9xw0xQR1y4_uTVSlxg,Oto Lastik,"Soğulcak, Ankara Konya Yolu, 06830 Gölbaşı/Ankara, Türkiye",39.528653,32.861531899999996,"[""auto_parts_store"", ""car_repair"", ""store"", ""point_of_interest"", ""establishment""]",3.6,5
ChIJrQlflsZw0xQR0SlrhZM0DW8,Soğulcak Cami,"Soğulcak, 06830 Gölbaşı/Ankara, Türkiye",39.522684999999996,32.8714499,"[""mosque"", ""place_of_worship"", ""point_of_interest"", ""establishment""]",4.2,5
ChIJE8gmuOZw0xQR_vy_M2kQxdM,Özgüney Petrol,"Mahmatlıbahçe Mh, Habaş, Mahmatlıbahçe, 06830 Gölbaşı/Ankara, Türkiye",39.5358259,32.859935899999996,"[""gas_station"", ""point_of_interest"", ""establishment""]",1,1
ChIJtZA-RcRw0xQRdvTERm4z3jE,Soğulcak Köyü Mezarlığı,"Soğulcak, 06830 Gölbaşı/Ankara, Türkiye",39.5234198,32.8682018,"[""cemetery"", ""point_of_interest"", ""establishment""]",,
ChIJ-057dABx0xQR1LoTILxZwY4,FEYAT AKBULAK,"Soğulcak, 06830 Gölbaşı/Ankara, Türkiye",39.526481000000004,32.8729666,"[""garden"", ""park"", ""point_of_interest"", ""establishment""]",5,2
ChIJ_4MFrOBw0xQRtqKPUVMOJjo,Kadoil,"Mahmatlıbahçe, Küme Evleri Sok., 06830 Gölbaşı/Ankara, Türkiye",39.532903999999995,32.858905,"[""gas_station"", ""point_of_interest"", ""establishment""]",5,1
ChIJgcWKUtxw0xQR8kRbWK9FfSQ,Teco,"Soğulcak, 06830 Gölbaşı/Ankara, Türkiye",39.5291613,32.860974999999996,"[""gas_station"", ""point_of_interest"", ""establishment""]",1,1
ChIJocGms91w0xQRkFsOZkCfMa4,Uspet-asa Petrol,"Soğulcak, 06830 Gölbaşı/Ankara, Türkiye",39.529737999999995,32.861092000000006,"[""gas_station"", ""point_of_interest"", ""establishment""]",3.8,8
ChIJvwwXaiZx0xQR3bqDNiynjMk,Metay Enerji Makine Gıda İnşaat Ticaret ve Sanayi A.Ş.,"Mahmatlıbahçe, 06830 Gölbaşı/Ankara, Türkiye",39.5277902,32.8492703,"[""storage"", ""point_of_interest"", ""establishment""]",5,1
ChIJ139AB8Zw0xQRqijRq51Q5TQ,Soğulcak Mahallesi,"Soğulcak, 06830 Gölbaşı/Ankara, Türkiye",39.51998,32.87058,"[""bus_stop"", ""transit_station"", ""point_of_interest"", ""establishment""]",,
ChIJhbZLOwBx0xQRb-dnTbbDPGI,Asya'nın bahçesi,"Soğulcak, GVF7+6F, 06830 Gölbaşı/Ankara, Türkiye",39.523022,32.863631999999996,"[""garden"", ""park"", ""point_of_interest"", ""establishment""]",,
ChIJE8gmuOZw0xQRJxK-Vqv6H1I,Pacific,"Mahmatlıbahçe, Habaş, 06830 Gölbaşı/Ankara, Türkiye",39.5358259,32.859935899999996,"[""gas_station"", ""point_of_interest"", ""establishment""]",4,1
ChIJ76j3MXl60xQR7zgAmeI_QcI,Bağiçi Köy Muhtarlığı,"Bağiçi, 06830 Gölbaşı/Ankara, Türkiye",39.532418,32.9022569,"[""point_of_interest"", ""establishment""]",3,2
ChIJm-OW1nh60xQRZ7PmJ_xjJ44,Seğmenler Su Fabrikası,"Bağiçi, 06830 Gölbaşı/Ankara, Türkiye",39.5327,32.90125,"[""bus_stop"", ""transit_station"", ""point_of_interest"", ""establishment""]",,
ChIJo11MtX560xQRKcjkmSvmI8Y,İnci Memba Suyu,"Bağiçi, 06830 Gölbaşı/Ankara, Türkiye",39.5328057,32.9016733,"[""government_office"", ""point_of_interest"", ""establishment""]",4.6,17
ChIJwWxou6Nw0xQRrwp7wtyMuuA,Bağiçi Yayla Cami,"Bağiçi, 06830 Gölbaşı/Ankara, Türkiye",39.519255,32.8910242,"[""mosque"", ""place_of_worship"", ""point_of_interest"", ""establishment""]",4.8,5
ChIJCa4QHHN70xQR6QmmZuZcacc,Doğan besi Çiftliği,"Ankara gölbaşı, Bağiçi, yayla küme evleri No/84, 06830 Gölbaşı/Ankara, Türkiye",39.530477,32.905324,"[""ranch"", ""farm"", ""food"", ""point_of_interest"", ""establishment""]",5,1
ChIJjXYU-6Jw0xQRplfpKftVZkM,Bağiçi Mahallesi,"Bağiçi, 06830 Gölbaşı/Ankara, Türkiye",39.5209,32.88963,"[""bus_stop"", ""transit_station"", ""point_of_interest"", ""establishment""]",,
ChIJb5IY13h60xQR3xKOVMnKShE,Seğmenler Su Fabrikası,"Bağiçi, 06830 Gölbaşı/Ankara, Türkiye",39.532609,32.90124,"[""bus_stop"", ""transit_station"", ""point_of_interest"", ""establishment""]",2,1
ChIJYfApkYd60xQRe9zEHqu45MQ,Bağiçi Köyü,"Bağiçi, 06830 Gölbaşı/Ankara, Türkiye",39.53636,32.90802,"[""bus_stop"", ""transit_station"", ""point_of_interest"", ""establishment""]",,
ChIJz5Vdjfdx0xQR1ZxZGJ_U5WQ,Gündoğdu Home,"Bağiçi, yayla küme evleri, 06830 Gölbaşı/Ankara, Türkiye",39.5211979,32.892462699999996,"[""garden"", ""park"", ""point_of_interest"", ""establishment""]",,
ChIJLZQ87Otw0xQRTzZDp584AiA,Bağiçi Köy Yolu Besi Çiftliği,"Soğulcak, 06830 Gölbaşı/Ankara, Türkiye",39.53241,32.8716,"[""bus_stop"", ""transit_station"", ""point_of_interest"", ""establishment""]",,
ChIJt36DkYd60xQRc2ZW0qom3OY,Çocuk Bahçesi,"Bağiçi, 06830 Gölbaşı/Ankara, Türkiye",39.536173999999995,32.9081591,"[""park"", ""point_of_interest"", ""establishment""]",4.3,4
ChIJQaxiMdVx0xQRGTI-eGYv_KA,Çınarlı bahçe sinop,"Abalı Köyü Yolu, Abalı/Sinop Merkez, Soğulcak, 06830 Gölbaşı/Sinop, Türkiye",39.522771899999995,32.871053499999995,"[""breakfast_restaurant"", ""restaurant"", ""food"", ""point_of_interest"", ""establishment""]",,
ChIJyxR2hb9x0xQRStNgDaEIwyg,"Mutlu besi , süt ve süt ürünleri","Ankara, Soğulcak, küme evleri, 06830 Gölbaşı/Ankara, Türkiye",39.5228652,32.8714505,"[""ranch"", ""farm"", ""food"", ""point_of_interest"", ""establishment""]",,
ChIJB73wLQBx0xQRBKhSZIlmmYg,Erdem besi çiftliği,"Soğulcak, 06830 Gölbaşı/Ankara, Türkiye",39.5229563,32.8710421,"[""butcher_shop"", ""food_store"", ""store"", ""food"", ""point_of_interest"", ""establishment""]",,
ChIJx-XsnsZw0xQR9NENo0DrL5A,Soğulcak Köyü,"Soğulcak, 06830 Gölbaşı/Ankara, Türkiye",39.522833999999996,32.87081,"[""bus_stop"", ""transit_station"", ""point_of_interest"", ""establishment""]",,
ChIJz-TffwBx0xQRMdo6PmuyNJI,ADEM ARLI,"Bağiçi, 06830 Gölbaşı/Ankara, Türkiye",39.520482699999995,32.887874599999996,"[""apartment_building"", ""point_of_interest"", ""establishment""]",,
ChIJjeVMR3h60xQRoYqvkLTa1QI,Baği̇çi̇ Yayla Yolu,"Bağiçi, 06830 Gölbaşı/Ankara, Türkiye",39.529866,32.90045,"[""bus_stop"", ""transit_station"", ""point_of_interest"", ""establishment""]",,
ChIJXQM6IYZ60xQRPIPHU_55BF4,Bağiçi Cami,"Bağiçi, 06830 Gölbaşı/Ankara, Türkiye",39.538288,32.9096779,"[""mosque"", ""place_of_worship"", ""point_of_interest"", ""establishment""]",4.4,9
ChIJN4uEMvl60xQR_K3EhFhZPi4,Yöreli Kaz Çiftliği,"Yöreli, 06720 Balâ/Ankara, Türkiye",39.5289,32.93799,"[""bus_stop"", ""transit_station"", ""point_of_interest"", ""establishment""]",,
ChIJaUggM_l60xQRVeAD-F2tEFQ,Yöreli Kaz Çiftliği,"Yöreli, 06720 Balâ/Ankara, Türkiye",39.52901,32.93805,"[""bus_stop"", ""transit_station"", ""point_of_interest"", ""establishment""]",,
ChIJWwsgZIh60xQR8kauahqni4c,Bağiçi Köyü,"Bağiçi, 06830 Gölbaşı/Ankara, Türkiye",39.53651,32.91101,"[""bus_stop"", ""transit_station"", ""point_of_interest"", ""establishment""]",,
ChIJVdWVBYZ70xQRiep_H83ErYQ,Ceylin Hayvancılık - Yasin Karslı,"Yöreli, Yöreli kümeevleri no:191, 06830 Bala/Ankara, Türkiye",39.5261582,32.9414428,"[""ranch"", ""farm"", ""point_of_interest"", ""establishment""]",,
ChIJOW8-SQB70xQRxfwbhAFbjss,Ceylin Hayvancılık- Yasin Karslı,"Yöreli, 06720 Balâ/Ankara, Türkiye",39.5256317,32.9425843,"[""farm"", ""point_of_interest"", ""establishment""]",,
ChIJz-DXZYh60xQRLL7560B3yUY,Bağiçi Köyü,"Bağiçi, 06830 Gölbaşı/Ankara, Türkiye",39.53641,32.91101,"[""bus_stop"", ""transit_station"", ""point_of_interest"", ""establishment""]",,
ChIJtYHSFwB70xQRjaVkoc2nOCM,Bergöz,"Bağiçi, 06830 Gölbaşı/Ankara, Türkiye",39.5378689,32.9105279,"[""point_of_interest"", ""establishment""]",5,6
ChIJWz5zkYd60xQRGa7Cys_QV7w,Bağiçi Köyü,"Bağiçi, 06830 Gölbaşı/Ankara, Türkiye",39.53623,32.90811,"[""bus_stop"", ""transit_station"", ""point_of_interest"", ""establishment""]",,
ChIJbyeCRqh70xQRBoz33-1i1Ek,Yöreli Köyü Mezarlığı,"Yöreli, 06720 Balâ/Ankara, Türkiye",39.521164999999996,32.954506699999996,"[""cemetery"", ""point_of_interest"", ""establishment""]",5,1
ChIJo8-_bQB70xQRR3JKr9s62i4,YÖRELİ MAH.MUHTARI AKIN KILIÇ,"Yöreli, Yöreli Köyü Çıkışı, 06720 Bala/Ankara, Türkiye",39.52088,32.95679500000001,"[""government_office"", ""point_of_interest"", ""establishment""]",5,1
ChIJDcGf-3p70xQRQrCTicAGHEM,Yöreli Toki,"Yöreli, 06720 Balâ/Ankara, Türkiye",39.520041,32.979943999999996,"[""bus_stop"", ""transit_station"", ""point_of_interest"", ""establishment""]",,
ChIJtXiG8qd70xQRLhetzROihoM,Yöreli Gıda,"Yöreli, 06720 Balâ/Ankara, Türkiye",39.519614,32.9562889,"[""grocery_store"", ""food_store"", ""store"", ""food"", ""point_of_interest"", ""establishment""]",2.5,4
ChIJ2Q09AKh70xQRvSO2wuWFVN4,Yöreli Köyü,"Yöreli, 06720 Balâ/Ankara, Türkiye",39.52055,32.95494,"[""bus_stop"", ""transit_station"", ""point_of_interest"", ""establishment""]",,
ChIJ8fgRyAl70xQR0wrfPHmIDB4,Yöreli Köyü Çıkışı,"Yöreli, 06720 Balâ/Ankara, Türkiye",39.520559999999996,32.95851,"[""bus_stop"", ""transit_station"", ""point_of_interest"", ""establishment""]",,
ChIJUcXd_wd70xQRVPVN3AFmJCg,Yöreli Köyü,"Yöreli, 06720 Balâ/Ankara, Türkiye",39.520649999999996,32.95501,"[""bus_stop"", ""transit_station"", ""point_of_interest"", ""establishment""]",5,2
ChIJb3rWhQd70xQR4J6ey7ONcwE,Yöreli Köyü,"Yöreli, 06720 Balâ/Ankara, Türkiye",39.52158,32.95277,"[""bus_stop"", ""transit_station"", ""point_of_interest"", ""establishment""]",,
ChIJc2j3SMB70xQRWCYIYtmOMIE,Hasan Korkmaz Konagi,"Yöreli, 06720 Balâ/Ankara, Türkiye",39.521135,32.952836,"[""point_of_interest"", ""establishment""]",,
ChIJiZHIhgd70xQRXQSaVk80lc0,Yöreli Köyü,"Yöreli, 06720 Balâ/Ankara, Türkiye",39.52154,32.95261,"[""bus_stop"", ""transit_station"", ""point_of_interest"", ""establishment""]",,
ChIJCVvTxwl70xQROZklRPobXro,Yöreli Köyü Çıkışı,"Yöreli, 06720 Balâ/Ankara, Türkiye",39.52045,32.95858,"[""bus_stop"", ""transit_station"", ""point_of_interest"", ""establishment""]",,
ChIJh7IYaAB70xQR5OwDPrYw8BE,Yöreli köyü cami,"Yöreli, 06720 Balâ/Ankara, Türkiye",39.5206564,32.9557214,"[""mosque"", ""place_of_worship"", ""point_of_interest"", ""establishment""]",,
ChIJZ7ZXYgB70xQR5tJhDxL3TWQ,Yunus Göçer 'in evi,"Yöreli, 06720 Balâ/Ankara, Türkiye",39.5198008,32.9550744,"[""campground"", ""park"", ""lodging"", ""point_of_interest"", ""establishment""]",5,2
ChIJDaQXSXZ70xQRjVwLpXGHTI0,Yaprak Malikânesi,"Yöreli, 06000 Balâ/Ankara, Türkiye",39.5306524,32.979327,"[""garden"", ""park"", ""point_of_interest"", ""establishment""]",,
ChIJhc_L5Hp70xQRtEbkEreudgU,Yöreli Toki,"Yöreli, 06720 Balâ/Ankara, Türkiye",39.52017,32.979929999999996,"[""bus_stop"", ""transit_station"", ""point_of_interest"", ""establishment""]",,
ChIJh0xEKGN90xQRk_tPV-zLJuQ,YÖRELİ HOBİ BAHÇELERİ,"Abazlı, 06720 Balâ/Ankara, Türkiye",39.5311482,33.0001242,"[""park"", ""point_of_interest"", ""establishment""]",4.4,13
ChIJY50MY7V90xQRt_Zopr1xGn0,"Sarphan Farm Hobi Bahçeleri - Ankara, Bala, Yöreli - Yöreli Hobi Bahçeleri","Yöreli, 06720 Balâ/Ankara, Türkiye",39.5244007,32.9987752,"[""garden"", ""park"", ""point_of_interest"", ""establishment""]",5,8
ChIJcfd3xrx80xQRE9WkwFo-GUw,Hobi Bahçeleri,"Abazlı, 06720 Balâ/Ankara, Türkiye",39.527629999999995,33.00093,"[""bus_stop"", ""transit_station"", ""point_of_interest"", ""establishment""]",,
ChIJ_-N4Qnd90xQRWyOF_9s9v7E,"Sarphan Reserve Hobi Bahçeleri - Ankara, Bala, Yöreli - Yöreli Hobi Bahçeleri","Yöreli, 06270 Balâ/Ankara, Türkiye",39.527107199999996,33.0004634,"[""garden"", ""park"", ""point_of_interest"", ""establishment""]",,
ChIJ6UG1NuZ90xQR1W8XMbYMF-g,Orhan Öztaşkın,"Yöreli, 06720 Balâ/Ankara, Türkiye",39.5278372,32.9946397,"[""garden"", ""park"", ""point_of_interest"", ""establishment""]",5,1
ChIJCYsexLx80xQRBGgoyPA3a6o,Hobi Bahçeleri,"Abazlı, 06720 Balâ/Ankara, Türkiye",39.527575999999996,33.001028,"[""bus_stop"", ""transit_station"", ""point_of_interest"", ""establishment""]",,
ChIJq8EpKBpr0xQR-uUy9O40C3E,ALTINOK TARIM ÜRÜNLERİ,"Abazlı, Küme Evleri NO:350, 06720 Bala/Ankara, Türkiye",39.541391,33.0265979,"[""point_of_interest"", ""establishment""]",5,2
ChIJZVVJrDNj0xQRE_ArjNuPYvc,Abazlı Mahallesi,"Abazlı, 06720 Balâ/Ankara, Türkiye",39.53973,33.01956,"[""bus_stop"", ""transit_station"", ""point_of_interest"", ""establishment""]",3,1
ChIJB7mirjNj0xQRg_WBLCogqs0,Abazlı Mahallesi,"Abazlı, 06720 Balâ/Ankara, Türkiye",39.539719999999996,33.01941,"[""bus_stop"", ""transit_station"", ""point_of_interest"", ""establishment""]",,
ChIJgT120TNj0xQRlVWRQ1whdUA,Abazlı Toki Evleri,"Abazlı, 06720 Balâ/Ankara, Türkiye",39.54125,33.01939,"[""bus_stop"", ""transit_station"", ""point_of_interest"", ""establishment""]",,
ChIJPekKreJj0xQRXOcvqRb_75E,Çayan Malikânesi,"Abazlı, küme evleri, 06720 Bala/Ankara, Türkiye",39.5394888,33.0183436,"[""car_repair"", ""food"", ""point_of_interest"", ""establishment""]",,
ChIJxao50DNj0xQRkKYXguy02oM,Abazlı Toki Evleri,"Abazlı, 06720 Balâ/Ankara, Türkiye",39.541219999999996,33.01922,"[""bus_stop"", ""transit_station"", ""point_of_interest"", ""establishment""]",,
ChIJsSD16MU40xQR4rXZjuO6Jr8,The Famous Deer,"Abazlı, Ankara Bala Yolu, 06720 Bala/Ankara, Türkiye",39.536035,33.07691,"[""wholesaler"", ""general_contractor"", ""point_of_interest"", ""establishment""]",5,1
ChIJs4CbPGmd1BQRawjgKvu-Hdc,Ninnonun Bahçesi,"Çiğdemli, 06720 Balâ/Ankara, Türkiye",39.5227432,33.0994939,"[""garden"", ""park"", ""point_of_interest"", ""establishment""]",,
ChIJPXz2ESyd1BQRK_cVEHwEpgk,Ankara Üniversitesi Bala Meslek Yüksekokulu,"İsmetpaşa, Ankara Bala Yolu No:77, 06720 Bala/Ankara, Türkiye",39.5419105,33.1293195,"[""university"", ""point_of_interest"", ""establishment""]",5,1
ChIJrQxaYl6c1BQR-ARuv3xusY8,Termo,"İsmetpaşa, 06726 Balâ/Ankara, Türkiye",39.538921699999996,33.1435629,"[""gas_station"", ""point_of_interest"", ""establishment""]",3.7,20
ChIJLQNFov-c1BQRBrjIJ0b5pwI,Alparslan İlkokulu,"İsmetpaşa, Şht. Cumhur Işık Sk. No:14, 06720 Bala/Ankara, Türkiye",39.5386123,33.1262092,"[""primary_school"", ""school"", ""point_of_interest"", ""establishment""]",,
ChIJeZhoRDud1BQRzj389Jcel40,Balâ Atatürk Mesleki ve Teknik Anadolu Lisesi,"Alparslan Türkeş Bulvarı &, İsmetpaşa, Ankara Bala Yolu, 06720 Bala/Ankara, Türkiye",39.5411741,33.128016699999996,"[""point_of_interest"", ""establishment""]",4.7,6
ChIJ1QbZe16c1BQRpTF20p83PgM,Aygaz,"İsmetpaşa, 06726 Balâ/Ankara, Türkiye",39.538478999999995,33.1440592,"[""gas_station"", ""point_of_interest"", ""establishment""]",4,4
ChIJsTgJ6uGd1BQROTeBRxYMLbQ,KANDEMİR BETON - BALA TESİS,"İsmetpaşa, 06720 Balâ/Ankara, Türkiye",39.526015099999995,33.1260463,"[""point_of_interest"", ""establishment""]",5,1
ChIJHdRpjFWc1BQRI85BCbAIzUo,Konut Büfe,"İsmetpaşa, 06720 Balâ/Ankara, Türkiye",39.539699999999996,33.127890799999996,"[""grocery_store"", ""food_store"", ""store"", ""food"", ""point_of_interest"", ""establishment""]",3.5,15
ChIJz_Y2Df-c1BQRNOHZG5SO8yw,Bala Parkı,"İsmetpaşa, 06720 Balâ/Ankara, Türkiye",39.538343999999995,33.127319899999996,"[""park"", ""point_of_interest"", ""establishment""]",3.8,19
ChIJd2QqfF6c1BQRLltqn-4Hv4E,Eses,"İsmetpaşa, No:161, 06720 Bala/Ankara, Türkiye",39.538577,33.1437758,"[""gas_station"", ""point_of_interest"", ""establishment""]",,
ChIJURkdZP-c1BQRPrsUQEWjSM0,Konutlar Sitesi,"İsmetpaşa, Yalçın Sk., 06720 Bala/Ankara, Türkiye",39.539051,33.127762,"[""point_of_interest"", ""establishment""]",2.7,3
ChIJrQzVbv-c1BQRgxImy18yV_Q,Ekiz Kooperatifi,"İsmetpaşa, 5. Sk., 06720 Bala/Ankara, Türkiye",39.538655,33.127762,"[""point_of_interest"", ""establishment""]",5,2
ChIJqTccUACd1BQReIkJXKh9zGI,Bala İsmetpaşa Camii,"İsmetpaşa, 06720 Balâ/Ankara, Türkiye",39.5416452,33.1250735,"[""mosque"", ""place_of_worship"", ""point_of_interest"", ""establishment""]",5,4
ChIJvWFWc_-c1BQRxDdGThkkHRc,Futboll Sahası,"İsmetpaşa, 06720 Balâ/Ankara, Türkiye",39.538467,33.127079,"[""stadium"", ""event_venue"", ""sports_complex"", ""sports_activity_location"", ""point_of_interest"", ""establishment""]",4,1
ChIJC0HwORmd1BQRcEpdRg9te60,ganofficell,"Instagram ganofficel, İsmetpaşa, 06720 Bala/Ankara, Türkiye",39.5400221,33.128869,"[""skin_care_clinic"", ""point_of_interest"", ""health"", ""establishment""]",5,1
ChIJTxkkklWc1BQR8Qa0c-fLtxg,İsmet Paşa 1,"İsmetpaşa, 06720 Balâ/Ankara, Türkiye",39.540042,33.127795000000006,"[""bus_stop"", ""transit_station"", ""point_of_interest"", ""establishment""]",,
ChIJSx19k1Wc1BQRjcYozvJVGd0,İsmet Paşa 2,"İsmetpaşa, 06720 Balâ/Ankara, Türkiye",39.54016800000001,33.127983,"[""bus_stop"", ""transit_station"", ""point_of_interest"", ""establishment""]",,
ChIJJ4PHVwCd1BQRQSAUh80nocA,İNFA GRUP TEKSTİL LTD. ŞTİ. BÂLÂ YERLEŞKESİ,"İsmetpaşa, Ankara Bala Yolu No:77, 06720 Bala/Ankara, Türkiye",39.5412281,33.1276528,"[""point_of_interest"", ""establishment""]",5,1
ChIJ57VdJACd1BQR-iafB9NS_kE,Bim,"İsmetpaşa, Ankara Bala Yolu No:77, 06720 Bala/Ankara, Türkiye",39.5408608,33.127701699999996,"[""food_store"", ""store"", ""food"", ""point_of_interest"", ""establishment""]",,
ChIJTx5dQwCd1BQRfP7rNG7jCF8,YİĞİT BEY KONAĞI,"İsmetpaşa, 06720 Balâ/Ankara, Türkiye",39.5402414,33.1255916,"[""apartment_building"", ""point_of_interest"", ""establishment""]",5,1
ChIJ34YXPgCd1BQRM7aVSC1pYoM,Uğur bey,"İsmetpaşa, 06720 Balâ/Ankara, Türkiye",39.5402883,33.1249876,"[""apartment_building"", ""point_of_interest"", ""establishment""]",,
ChIJAWSaHbGZ1BQRK8cR1HQen6o,TÜRKERLER LTD. ŞTİ.,"Büyükboyalık, 06720 Balâ/Ankara, Türkiye",39.536272000000004,33.254966599999996,"[""point_of_interest"", ""establishment""]",,
ChIJ5SCU2ESq0xQRAbjlY5K55YU,Yaylabeyi Mezarlığı,"Yaylabeyi, 06860 Haymana/Ankara, Türkiye",39.5533724,32.413632199999995,"[""cemetery"", ""point_of_interest"", ""establishment""]",,
ChIJkUsEJluq0xQR6UcJw0OFd84,Yaylabeyi Cami,"Yaylabeyi, 06860 Haymana/Ankara, Türkiye",39.555161000000005,32.4120071,"[""mosque"", ""place_of_worship"", ""point_of_interest"", ""establishment""]",4.5,6
ChIJe99wejIJ0xQRaWlSpE5ZY7k,Ankara Gölbaşı Oyaca Akarsu Para Kontrol Cihazı,"Oyaca Akarsu, No: 75629, 06830 Gölbaşı/Ankara, Türkiye",39.551365,32.593828,"[""wholesaler"", ""store"", ""point_of_interest"", ""establishment""]",4,1
ChIJEZnhCucJ0xQRlSyL1NtqC9U,Ata Tohum Takas Derneği,"Oyaca Akarsu, Kılıç Sk. No:18, 06830 Gölbaşı/Ankara, Türkiye",39.551365,32.593828,"[""point_of_interest"", ""establishment""]",4.7,3
ChIJWVuVwk4J0xQRLmPLtoFrJAU,Özcan Garden,"Oyaca Akarsu, 06830 Gölbaşı/Ankara, Türkiye",39.551421,32.5939285,"[""garden"", ""park"", ""point_of_interest"", ""establishment""]",,
ChIJA7EVLpYJ0xQRK1gG42fm9e8,Tmo Oyaca Tesisleri Ekip Şefliği,"Oyaca Akarsu, 06830 Gölbaşı/Ankara, Türkiye",39.545117399999995,32.6049584,"[""point_of_interest"", ""establishment""]",3.7,9
ChIJm7uLX-p30xQRF41MqxM3IcY,Oyaca Bereket Hobi Bahçeleri,"Bereket Hobi Bahçeleri, Oyaca Mahallesi, 06830 Gölbaşı/Ankara, Türkiye",39.5566003,32.6161674,"[""garden"", ""park"", ""point_of_interest"", ""establishment""]",4.9,19
ChIJ8cGK0rsJ0xQR05jndGo3XLo,Gelin Kayası,"Oyaca Akarsu, 06830 Gölbaşı/Ankara, Türkiye",39.549392,32.616851499999996,"[""historical_landmark"", ""historical_place"", ""point_of_interest"", ""establishment""]",5,5
ChIJ9TQ23f0J0xQRQYYVtepem-U,Zehra'nın Bahçesi,"Oyaca Akarsu, Unnamed Road, 06830 Gölbaşı/Ankara, Türkiye",39.558653,32.617841,"[""garden"", ""park"", ""point_of_interest"", ""establishment""]",4.4,9
ChIJIT1Xs8oJ0xQR-Myom2suDhk,ÖZERKOÇ TARIM TOHUM ELEME,"Oyaca Akarsu, 06830 Gölbaşı/Ankara, Türkiye",39.544873599999995,32.605975199999996,"[""storage"", ""point_of_interest"", ""establishment""]",5,14
ChIJhYc1LZAL0xQREAUc0uv8xWE,Esenbel Konutları,"İkizce, 06830 Gölbaşı/Ankara, Türkiye",39.567519999999995,32.65873,"[""bus_stop"", ""transit_station"", ""point_of_interest"", ""establishment""]",4.5,2
ChIJq2w0QigK0xQRJ8znprxIjbQ,Oyaca,"Oyaca Akarsu, 06830 Gölbaşı/Ankara, Türkiye",39.541424,32.6295821,"[""point_of_interest"", ""establishment""]",4.2,6
ChIJEVpPcBkL0xQRlG3ZPtb8czA,Yeşil çevreciler hobi bahçeleri,"İkizce, 06830 Gölbaşı/Ankara, Türkiye",39.5655437,32.6528363,"[""garden"", ""park"", ""point_of_interest"", ""establishment""]",5,11
ChIJm4nSopAL0xQR5ynMhIEAdC0,Çakıltaş Sitesi,"İkizce, 06830 Gölbaşı/Ankara, Türkiye",39.563753999999996,32.660956,"[""point_of_interest"", ""establishment""]",4.3,6
ChIJeWp8tBgL0xQRC87s1sGgMic,Samsun Çeşmesi,"Oyaca Akarsu, D260, 06830 Gölbaşı/Ankara, Türkiye",39.550886999999996,32.653124999999996,"[""sports_activity_location"", ""point_of_interest"", ""establishment""]",4.4,5
ChIJEQkQiuwL0xQRkphpf8aFyKU,Güner Bahçeleri,"İkizce, 06520 Gölbaşı/Ankara, Türkiye",39.5685772,32.6591103,"[""garden"", ""park"", ""point_of_interest"", ""establishment""]",4.5,35
ChIJAbeiDLYL0xQRhSsrE0tkpiw,Dereboyu Hobi Bahçeleri,"Boyalık Hobi Bahçeleri, Oyaca Yeşilçam, 06830 Gölbaşı/Ankara, Türkiye",39.5463982,32.658406,"[""housing_complex"", ""point_of_interest"", ""establishment""]",5,1
ChIJt_ghoZYL0xQRKxLExLbxeLA,eyüp şahinin bahçesi,"Oyaca Akarsu, 06830 Gölbaşı/Ankara, Türkiye",39.563264499999995,32.6561999,"[""garden"", ""park"", ""point_of_interest"", ""establishment""]",5,1
ChIJ5XKJ9ygK0xQRumCnHb3Q1mg,Erk-uzuner Kardeşler Petrol,"İkizce Mh., 06830 Gölbaşı/Ankara, Türkiye",39.541514,32.6306869,"[""gas_station"", ""point_of_interest"", ""establishment""]",5,1
ChIJ_zITLJEL0xQRbf8TGRd5UGI,Dikilitaş,"Gölbaşı/Ankara, Türkiye",39.563725,32.658415,"[""transit_station"", ""point_of_interest"", ""establishment""]",,
ChIJ7TpyGbwL0xQRnnEz9KjUJOA,Haymana Yolu,"Gölbaşı/Ankara, Türkiye",39.555769999999995,32.656495,"[""transit_station"", ""point_of_interest"", ""establishment""]",,
ChIJg-W0fZQL0xQRTspy6zCf4P8,hasan öksüz çiftliği,"Oyaca Akarsu, 06830 Gölbaşı/Ankara, Türkiye",39.5647295,32.6533453,"[""garden"", ""park"", ""point_of_interest"", ""establishment""]",4.7,10
ChIJC-WmAloL0xQRY-WzNELDhW4,Yamaçalan hobi bahçeleri,"Oyaca Akarsu, 06830 Gölbaşı/Ankara, Türkiye",39.5543836,32.653000999999996,"[""park"", ""point_of_interest"", ""establishment""]",,
ChIJ57SjqLcL0xQRPx-LVyHfJxM,Boyalık Köyü Kavşağı,"Oyaca Yeşilçam, 06830 Gölbaşı/Ankara, Türkiye",39.54956,32.65298,"[""bus_stop"", ""transit_station"", ""point_of_interest"", ""establishment""]",,
ChIJaSR078oL0xQRSqCDkPqHf9o,Boyalık Köyü Kavşağı,"Oyaca Akarsu, 06830 Gölbaşı/Ankara, Türkiye",39.545218999999996,32.648154000000005,"[""bus_stop"", ""transit_station"", ""point_of_interest"", ""establishment""]",4.3,3
ChIJtWVHAiAL0xQR9xbtd9V1xeo,Çakırlı & Kolukısa Çiftliği,"Oyaca Akarsu, Unnamed Road, 06830 Gölbaşı/Ankara, Türkiye",39.5659058,32.6533011,"[""garden"", ""park"", ""point_of_interest"", ""establishment""]",5,7
ChIJRSKpGLwL0xQRBUtyaMp-PiQ,Şenbaba Yumurta Üretim Çiftliği,"Oyaca Akarsu, 06830 Gölbaşı/Ankara, Türkiye",39.556132,32.655986,"[""point_of_interest"", ""establishment""]",4.3,3
ChIJpUThG0EL0xQRVWF4ZGyUGA0,Dikilitaş Köyü Cami,"Dikilitaş, 06860 Gölbaşı/Ankara, Türkiye",39.548688999999996,32.699411999999995,"[""mosque"", ""place_of_worship"", ""point_of_interest"", ""establishment""]",4.6,9
ChIJc1CQcwUL0xQRqMA9OTsrdO8,Dikilitas Çakırlı hobi bahçeleri,"Dikilitaş, HM3G+RH, 06830 Gölbaşı/Ankara, Türkiye",39.554676799999996,32.6763642,"[""housing_complex"", ""point_of_interest"", ""establishment""]",5,7
ChIJwd0x70ML0xQR7lUPzvY2Wqw,Dikilitaş Muhtarlığı,"Dikilitaş, 06830 Gölbaşı/Ankara, Türkiye",39.551044000000005,32.700164,"[""point_of_interest"", ""establishment""]",4.7,3
ChIJU4ypdVAL0xQRdIMmtJ8eD0U,Yasin Deveci Bahçeci,"Dikilitaş, HM7C+JQ, 06830 Gölbaşı/Ankara, Türkiye",39.5641076,32.671909899999996,"[""condominium_complex"", ""point_of_interest"", ""establishment""]",,
ChIJt9lhjEML0xQRX28KYtRlWuo,Tarım Kredi Kooperatifi,"Dikilitaş, 06830 Gölbaşı/Ankara, Türkiye",39.5514024,32.7007538,"[""point_of_interest"", ""establishment""]",,
ChIJ0VzOeUQL0xQRqyLAO8CFiNk,Dikilitaş Köyü Mezarlığı,"Dikilitaş, 06830 Gölbaşı/Ankara, Türkiye",39.550924099999996,32.702960000000004,"[""cemetery"", ""point_of_interest"", ""establishment""]",,
ChIJ_RfnFzUL0xQRX99XnuAxIhE,Bölükbaşı Çiftliği,"İkizce, Unnamed Road, İkizce, 06830 Gölbaşı/Ankara, Türkiye",39.565389599999996,32.664398999999996,"[""farm"", ""garden"", ""park"", ""point_of_interest"", ""establishment""]",4.6,5
ChIJM7JAjUML0xQRvkRn8QdlCJg,Kültür Merkezi,"Dikilitaş, 06830 Gölbaşı/Ankara, Türkiye",39.5514419,32.7005739,"[""point_of_interest"", ""establishment""]",,
ChIJFW4g3kML0xQR94vxFja7BuE,Dikilitaş,"Dikilitaş, 06830 Gölbaşı/Ankara, Türkiye",39.550689999999996,32.69978,"[""bus_stop"", ""transit_station"", ""point_of_interest"", ""establishment""]",,
ChIJcU5YAkQL0xQR69VCUDcHtTg,Çocuk Parkı,"Dikilitaş, 06830 Gölbaşı/Ankara, Türkiye",39.549971,32.7017149,"[""park"", ""point_of_interest"", ""establishment""]",2.6,8
ChIJoxtuDwAL0xQRyrU5Ccf9j8A,DİKİLİTAŞ KIRAATHANESİ,"Dikilitaş, 06830 Gölbaşı/Ankara, Türkiye",39.5509705,32.6994451,"[""grocery_store"", ""food_store"", ""store"", ""food"", ""point_of_interest"", ""establishment""]",,
ChIJA2jXt9UL0xQR1roxZUf-NZM,KURNAZLAR BAHÇE İ&B,"Gölbaşı, Dikilitaş, 06830 Gölbaşı/Ankara, Türkiye",39.5620061,32.6645082,"[""garden"", ""park"", ""point_of_interest"", ""establishment""]",5,1
ChIJWUU-JK8L0xQRTqhYSqmecg0,Mersin Tır Parkı 1,"Dikilitaş, Cumhuriyet Caddesi No:104, 06830 Akdeniz/Mersin, Türkiye",39.55162,32.702822,"[""lodging"", ""point_of_interest"", ""establishment""]",,
ChIJXwTGQgAL0xQRUVlEvO3ibCg,Spor sahası,"Dikilitaş, 06830 Gölbaşı/Ankara, Türkiye",39.5516424,32.701287799999996,"[""playground"", ""point_of_interest"", ""establishment""]",,
ChIJAQDAeUQL0xQReDn4N0Ntw4c,Dikilitaş Köyü İöo,"Dikilitaş, 06860 Gölbaşı/Ankara, Türkiye",39.551758899999996,32.701459799999995,"[""university"", ""point_of_interest"", ""establishment""]",,
ChIJX2P_ZAAL0xQRw8OT6pt2Nl4,Çakıroğlu 168,"Dikilitaş, GPX2+MC, 06830 Gölbaşı/Ankara, Türkiye",39.549108,32.701011699999995,"[""condominium_complex"", ""point_of_interest"", ""establishment""]",,
ChIJKfpq-LwL0xQRNtfdOYx_gY0,ılısı kooperatifi,"Oyaca Yeşilçam, 06830 Gölbaşı/Ankara, Türkiye",39.5559034,32.6589062,"[""point_of_interest"", ""establishment""]",5,1
ChIJpahI30QL0xQRPaXloLjAyY4,Cavit Ünal Minaresi Ustası Cami,"Dikilitaş, 06830 Gölbaşı/Ankara, Türkiye",39.552893,32.7039502,"[""mosque"", ""place_of_worship"", ""point_of_interest"", ""establishment""]",5,2
ChIJx_dG2UQL0xQRQFcgnO6tzuo,Dikilitaş,"Dikilitaş, 06830 Gölbaşı/Ankara, Türkiye",39.553021,32.703801,"[""bus_stop"", ""transit_station"", ""point_of_interest"", ""establishment""]",,
ChIJIzclBBkL0xQRcaUsgHn8PYo,Dikilitaş Çeşme,"Dikilitaş, 06830 Gölbaşı/Ankara, Türkiye",39.544965399999995,32.704654,"[""point_of_interest"", ""establishment""]",4,4
ChIJbYpAKUUL0xQRGR9C1dgVUyc,Dikilitaş,"Dikilitaş, 06830 Gölbaşı/Ankara, Türkiye",39.553329999999995,32.704295,"[""transit_station"", ""point_of_interest"", ""establishment""]",,
ChIJY1kIzVoL0xQRngCyJYL6gsQ,Dikilitaş,"Dikilitaş, 06830 Gölbaşı/Ankara, Türkiye",39.55365,32.70491,"[""bus_stop"", ""transit_station"", ""point_of_interest"", ""establishment""]",,
ChIJ0fOEzVoL0xQRFUCjs8aTmF4,Dikilitaş,"Dikilitaş, 06830 Gölbaşı/Ankara, Türkiye",39.553709999999995,32.70476,"[""bus_stop"", ""transit_station"", ""point_of_interest"", ""establishment""]",,
ChIJpyHl_7IL0xQR2K_u9GFV9vQ,Dikilitaş mh. Büyük Cami,"Dikilitaş, 06830 Gölbaşı/Ankara, Türkiye",39.5529491,32.7040958,"[""mosque"", ""place_of_worship"", ""point_of_interest"", ""establishment""]",,
ChIJj20r30QL0xQRTnc6nrwKY38,Dikilitaş,"Dikilitaş, 06830 Gölbaşı/Ankara, Türkiye",39.552949999999996,32.70386,"[""bus_stop"", ""transit_station"", ""point_of_interest"", ""establishment""]",,
ChIJXR_HNBtz0xQR5qTY-wv4L7Q,Sahabe-i Kiramdan Seyyid Muhammed Türbesi,"Karagedik Aydın, HP5V+8MH, 06830 Gölbaşı/Ankara, Türkiye",39.5583125,32.744234399999996,"[""park"", ""point_of_interest"", ""establishment""]",4.6,17
ChIJaZ0gjmVx0xQRrCU7rN8Iz-M,Tepeyurt Köyü Mezarlığı,"Tepeyurt, 06830 Gölbaşı/Ankara, Türkiye",39.5505518,32.8183037,"[""cemetery"", ""point_of_interest"", ""establishment""]",5,1
ChIJrzZcbm9x0xQRy-iH1Ph2ByU,Tepeyurt Cami,"Tepeyurt, 06830 Gölbaşı/Ankara, Türkiye",39.551074,32.8206251,"[""mosque"", ""place_of_worship"", ""point_of_interest"", ""establishment""]",5,1
ChIJx1VioAZx0xQRDktC1vWDsgA,Dedemin Çiftliği,"Tepeyurt, 06830 Gölbaşı/Ankara, Türkiye",39.544827500000004,32.8266075,"[""farm"", ""point_of_interest"", ""establishment""]",,
ChIJB9i6c29x0xQRC-nm18NCPTA,Tepeyurt,"Tepeyurt, 06830 Gölbaşı/Ankara, Türkiye",39.551179999999995,32.82092,"[""bus_stop"", ""transit_station"", ""point_of_interest"", ""establishment""]",4,1
ChIJec6asWhx0xQR8sFSy7xbXrs,Tepeyurt Çikiş,"Tepeyurt, 06830 Gölbaşı/Ankara, Türkiye",39.549036,32.820578,"[""bus_stop"", ""transit_station"", ""point_of_interest"", ""establishment""]",,
ChIJ1QZz4Edx0xQR3oKxgzlDN-k,Ahiboz Gişeleri,"Mahmatlı, 06830 Gölbaşı/Ankara, Türkiye",39.5449246,32.8738551,"[""point_of_interest"", ""establishment""]",3.8,60
ChIJY5TiR_lw0xQRzqrPpC85JmI,Kadoil,"Mahmatlı, 06830 Gölbaşı/Ankara, Türkiye",39.547266199999996,32.8599244,"[""gas_station"", ""point_of_interest"", ""establishment""]",4.1,25
ChIJT-ttcwBx0xQRUT9O1iVDJVw,Elmalı Bahçem,"Mahmatlı, HV7F+G5, 06830 Gölbaşı/Ankara, Türkiye",39.562514199999995,32.8729589,"[""condominium_complex"", ""point_of_interest"", ""establishment""]",5,2
ChIJ_2yLUvlw0xQRuQoADdgN8rI,Lokanta,"Mahmatlı, 06830 Gölbaşı/Ankara, Türkiye",39.5469994,32.8593393,"[""restaurant"", ""point_of_interest"", ""food"", ""establishment""]",3,2
ChIJ6Y8ZYgBx0xQR34x4X01cFvc,Üçler Kolcu Hazır Beton (Ahiboz Tesisi),"Ahiboz, 06830 Gölbaşı/Ankara, Türkiye",39.549981900000006,32.858123299999995,"[""point_of_interest"", ""establishment""]",5,4
ChIJWwGJTlFx0xQRsmeuMnEhcOM,Saray Kebap Aksaraylı Yusuf ve Duran Ustanın Yeri,"Mahmatlı, Ankara Konya Yolu, 06830 Gölbaşı/Ankara, Türkiye",39.547026699999996,32.8598833,"[""restaurant"", ""point_of_interest"", ""food"", ""establishment""]",,
ChIJ2UIFEABx0xQRaigof-Sbsvg,Başkent Vizyon,"Mahmatlıbahçe, Ankara Konya Yolu, 06830 Gölbaşı/Ankara, Türkiye",39.5472755,32.859939499999996,"[""point_of_interest"", ""establishment""]",,
ChIJ_Rc6OQBx0xQRi19fxt-5V2k,Kadoil Can Oto Lastik,"Mahmatlı, GVW5+XR, 06830 Gölbaşı/Ankara, Türkiye",39.5474776,32.8595539,"[""car_repair"", ""point_of_interest"", ""establishment""]",5,2
ChIJkcTk0RNx0xQRPZq8bTn6g3w,Sarphan Natura Mahmatlı Hobi Bahçesi,"Mahmatlı, 06830 Gölbaşı/Ankara, Türkiye",39.564968,32.8744648,"[""garden"", ""park"", ""point_of_interest"", ""establishment""]",2.3,3
ChIJDU0b6RZx0xQR1onOFkL373Y,Ahiboz Bakım İşletme Merkezi,"Mahmatlı, Unnamed Road, Mahmatlı, 06830 Gölbaşı/Ankara, Türkiye",39.544081999999996,32.8742254,"[""corporate_office"", ""point_of_interest"", ""establishment""]",,
ChIJT_CXnTVw0xQRKIstRAeFr2M,Mahmatlı Kavşağı,"Mahmatlı, 06830 Gölbaşı/Ankara, Türkiye",39.57114,32.85648,"[""bus_stop"", ""transit_station"", ""point_of_interest"", ""establishment""]",,
ChIJQ_kffKJx0xQRFSOS3dvyj3w,Cemal ev,"Mahmatlı, 06830 Gölbaşı/Ankara, Türkiye",39.5685198,32.8678074,"[""apartment_building"", ""point_of_interest"", ""establishment""]",5,3
ChIJ4-CleTVw0xQRr56rz1Rp2Fs,Mahmatlı Kavşağı,"Karagedik Ercan, 06830 Gölbaşı/Ankara, Türkiye",39.570927,32.856133,"[""bus_stop"", ""transit_station"", ""point_of_interest"", ""establishment""]",,
ChIJTTHydzVw0xQRQP6IVffowCQ,Mahmatlı Kavşağı,"Gölbaşı/Ankara, Türkiye",39.571034999999995,32.856325,"[""transit_station"", ""point_of_interest"", ""establishment""]",,
ChIJNQcLYABx0xQRnJy83MwC2fY,Wayne Cave,"Mahmatlı, HV7F+G5, 06830 Gölbaşı/Ankara, Türkiye",39.563823299999996,32.8729894,"[""condominium_complex"", ""point_of_interest"", ""establishment""]",5,1
ChIJCSmtqGdx0xQRy_d_pNpTXB0,Moil İstasyon,"Mahmatlı, Küme Evleri No:82, 06830 Gölbaşı/Ankara, Türkiye",39.5439,32.8759,"[""gas_station"", ""point_of_interest"", ""establishment""]",,
ChIJaUTULip70xQR1dIbfJF1CWo,Mahmatlı Kurban Kesim Yeri,"Mahmatlı, köyü, 06000 Gölbaşı/Ankara, Türkiye",39.555298199999996,32.8982285,"[""food"", ""point_of_interest"", ""establishment""]",5,7
ChIJA7zSy6F60xQR1OzHYa4GuQg,Mahmatlı Cami,"Mahmatlı, 06830 Gölbaşı/Ankara, Türkiye",39.556801,32.901941199999996,"[""mosque"", ""place_of_worship"", ""point_of_interest"", ""establishment""]",5,20
ChIJU4kc8Z960xQR_7-ScYVAmT8,Mahmatlı Köyü,"Mahmatlı, 06830 Gölbaşı/Ankara, Türkiye",39.556309999999996,32.89958,"[""bus_stop"", ""transit_station"", ""point_of_interest"", ""establishment""]",2.8,4
ChIJaXzyml970xQRl3xTd2qMnP4,Aybarlar Çiftliği,"Mahmatlı, Küme Evler 47/A, 06830 Gölbaşı/Ankara, Türkiye",39.5585848,32.9104792,"[""ranch"", ""farm"", ""point_of_interest"", ""establishment""]",4.8,5
ChIJvQYJ83Jw0xQRMvsLhShm5zI,İnci Su,"Mahmatlı, 06830 Gölbaşı/Ankara, Türkiye",39.55814,32.88898,"[""bus_stop"", ""transit_station"", ""point_of_interest"", ""establishment""]",,
ChIJ7Zlab5960xQRxMxRKJTB9_k,Mahmatlı Köyü Son Durak,"Mahmatlı, 06830 Gölbaşı/Ankara, Türkiye",39.555192999999996,32.902477999999995,"[""bus_stop"", ""transit_station"", ""point_of_interest"", ""establishment""]",,
ChIJA--7bp960xQRUOASGCAnkTY,Çocuk Bahçesi,"Mahmatlı, 06830 Gölbaşı/Ankara, Türkiye",39.554958,32.9024941,"[""park"", ""point_of_interest"", ""establishment""]",4.4,5
ChIJ2SlS8J960xQRBPk1nJCsqSk,Mahmatlı Köyü,"Mahmatlı, 06830 Gölbaşı/Ankara, Türkiye",39.55625,32.89954,"[""transit_station"", ""point_of_interest"", ""establishment""]",,
ChIJ4R_aBwB70xQRmlGZo7RzGWM,Miraç zengin,"Mahmatlı, 06830 Gölbaşı/Ankara, Türkiye",39.561397299999996,32.907846,"[""housing_complex"", ""point_of_interest"", ""establishment""]",,
ChIJi3E78J960xQR9jPRDs2ijLc,Mahmatlı Köyü,"Mahmatlı, 06830 Gölbaşı/Ankara, Türkiye",39.55619,32.899499999999996,"[""bus_stop"", ""transit_station"", ""point_of_interest"", ""establishment""]",1,1
ChIJDTri9HJw0xQRNkuS_IfYJ_c,İnci Su,"Mahmatlı, 06830 Gölbaşı/Ankara, Türkiye",39.55804,32.88893,"[""bus_stop"", ""transit_station"", ""point_of_interest"", ""establishment""]",,
ChIJiZmE9HJw0xQRUBV0G7Vj9I8,İnci Su,"Mahmatlı, 06830 Gölbaşı/Ankara, Türkiye",39.558029999999995,32.888954999999996,"[""transit_station"", ""point_of_interest"", ""establishment""]",,
ChIJT9MNIQB70xQREprhJ0cKiow,Ali Rıza Aslan Bahçe,"Mahmatlı, 06830 Gölbaşı/Ankara, Türkiye",39.5591905,32.908671,"[""garden"", ""park"", ""point_of_interest"", ""establishment""]",,
ChIJu165U60yNwURc13KvKJq4-0,Musa Kandemir,"Mahmatlı, 06830 Gölbaşı/Ankara, Türkiye",39.565469199999995,32.9132247,"[""farm"", ""point_of_interest"", ""establishment""]",,
ChIJEyjY8Z9j0xQRJ8sroBCe_2w,Yücel garden,"Abazlı, 06720 Balâ/Ankara, Türkiye",39.5507947,33.012366799999995,"[""housing_complex"", ""point_of_interest"", ""establishment""]",,
ChIJR-DnILxj0xQRFcqPytLftpI,ALIbEY GARDEN,"Sofular, Küme Evler Yolu, 06720 Bala/Ankara, Türkiye",39.549751799999996,33.0174331,"[""lodging"", ""point_of_interest"", ""establishment""]",5,7
ChIJP9X2iUlj0xQRjZeBLi6mPfk,Doğan aykut,"Abazlı, 06720 Balâ/Ankara, Türkiye",39.5547618,33.0173905,"[""private_guest_room"", ""lodging"", ""point_of_interest"", ""establishment""]",5,2
ChIJHSJrrz5j0xQRl0htTbrWYyg,Abazlı Giriş,"Abazlı, 06720 Balâ/Ankara, Türkiye",39.552347,33.016535,"[""bus_stop"", ""transit_station"", ""point_of_interest"", ""establishment""]",5,1
ChIJcZrxpT5j0xQRKSZwFMH-tmA,Abazlı Giriş,"Abazlı, 06720 Balâ/Ankara, Türkiye",39.552432,33.016573,"[""bus_stop"", ""transit_station"", ""point_of_interest"", ""establishment""]",,
ChIJB_jIZTxj0xQRAjt0od7tzvg,Mehmet Yücel Tarım Ürünleri A.Ş,"Abazlı, 06720 Balâ/Ankara, Türkiye",39.5517779,33.0192389,"[""corporate_office"", ""point_of_interest"", ""establishment""]",5,2
ChIJV5JVaTxj0xQR51otQ_aAGB0,Abazlı Giriş,"Abazlı, 06720 Balâ/Ankara, Türkiye",39.551992,33.018718,"[""bus_stop"", ""transit_station"", ""point_of_interest"", ""establishment""]",,
ChIJG0orbDxj0xQRFZEoBqHv_aw,Abazlı Giriş,"Abazlı, 06720 Balâ/Ankara, Türkiye",39.551916999999996,33.018691,"[""bus_stop"", ""transit_station"", ""point_of_interest"", ""establishment""]",,
ChIJqyYOJTRj0xQRdmNdoBndJAc,Rıfkı YÜCEL Çiftliği,"Abazlı, 06999 Balâ/Ankara, Türkiye",39.5495448,33.0181095,"[""university"", ""point_of_interest"", ""establishment""]",,
ChIJp6ZOuCRj0xQRH9n_pF0qEzU,Abazlı Köyü Muhtarlığı,"Abazlı, 06720 Balâ/Ankara, Türkiye",39.547755,33.024281,"[""point_of_interest"", ""establishment""]",4.3,23
ChIJp6ZOuCRj0xQR95wcntouJ7g,Abazlı Köyü Mezarlığı,"Abazlı, 06720 Balâ/Ankara, Türkiye",39.548893299999996,33.0234971,"[""cemetery"", ""point_of_interest"", ""establishment""]",,
ChIJ8WibxNtj0xQR2g86x_5ql3I,Ahmet Yaylası,"Abazlı, 06720 Balâ/Ankara, Türkiye",39.5436665,33.0482034,"[""point_of_interest"", ""establishment""]",5,4
ChIJLW51cDtj0xQRUMi6rDAZqcg,Küme Evleri,"Abazlı, 06720 Balâ/Ankara, Türkiye",39.550032,33.020374,"[""bus_stop"", ""transit_station"", ""point_of_interest"", ""establishment""]",,
ChIJOzehXzBj0xQRLEV2DuFBLZo,Toki Evleri 1,"Abazlı, 06720 Balâ/Ankara, Türkiye",39.544850000000004,33.019909999999996,"[""bus_stop"", ""transit_station"", ""point_of_interest"", ""establishment""]",,
ChIJAcLJ3SRj0xQRC8Gtqb4swTo,Bazlı Köyü Cami,"Abazlı, 06720 Balâ/Ankara, Türkiye",39.5475752,33.0238929,"[""mosque"", ""place_of_worship"", ""point_of_interest"", ""establishment""]",4.8,4
ChIJowpQZTtj0xQR0KuBD0dJksg,Küme Evleri,"Abazlı, 06720 Balâ/Ankara, Türkiye",39.550008,33.020503,"[""bus_stop"", ""transit_station"", ""point_of_interest"", ""establishment""]",,
ChIJ4RlrXjBj0xQR6BH1HnzKlLY,Toki Evleri 1,"Abazlı, 06720 Balâ/Ankara, Türkiye",39.544850000000004,33.02008,"[""bus_stop"", ""transit_station"", ""point_of_interest"", ""establishment""]",,
ChIJNX-cPiRj0xQRMfXGCaul4cw,Çocuk Bahçesi,"Abazlı, 06720 Balâ/Ankara, Türkiye",39.547097,33.02717,"[""park"", ""point_of_interest"", ""establishment""]",5,2
ChIJr2Hq_iRj0xQR_XMPHCxNEMI,Köy Meydanı,"Abazlı, 06720 Balâ/Ankara, Türkiye",39.54698,33.02518,"[""bus_stop"", ""transit_station"", ""point_of_interest"", ""establishment""]",,
ChIJf3mkHiRj0xQRgeMmR786GaA,Abazlı Ortaokulu,"Abazlı Mh. Ankara Bala Yolu Pk:06720 Bala/ankara, Abazlı, 06720 Bala/Ankara, Türkiye",39.547154299999995,33.0276217,"[""school"", ""point_of_interest"", ""establishment""]",,
ChIJeZsZNDtj0xQR5WCWHGzUXyI,Mezarlık,"Abazlı, 06720 Balâ/Ankara, Türkiye",39.54861,33.02230000000001,"[""bus_stop"", ""transit_station"", ""point_of_interest"", ""establishment""]",,
ChIJYSbEGCRj0xQRQujwkVRTyGk,Abazlı Köyü İlkokulu,"Abazlı, 06720 Balâ/Ankara, Türkiye",39.547166,33.027837,"[""primary_school"", ""school"", ""point_of_interest"", ""establishment""]",,
ChIJjTTHcSVj0xQRTpyUtJnHfdQ,Abazlı Köy Çıkışı,"Abazlı, 06720 Balâ/Ankara, Türkiye",39.54535,33.024809999999995,"[""bus_stop"", ""transit_station"", ""point_of_interest"", ""establishment""]",5,1
ChIJMwMOsUyc1BQRP7SiS1mVd20,Bala Kaymakamligi,"No:55, Hamidiye, İ. Melih Gökçek Cd., 06726 Bala/Ankara, Türkiye",39.558536499999995,33.1181373,"[""local_government_office"", ""point_of_interest"", ""government_office"", ""establishment""]",2.7,9
ChIJ3ZXJmLad1BQRTewZclhPENo,Bala İlçe Devlet Hastanesi,"Şentepe, Atatürk Blv., 06720 Bala/Ankara, Türkiye",39.5573445,33.1182207,"[""hospital"", ""health"", ""point_of_interest"", ""establishment""]",4.7,7
ChIJ2QQbNrOd1BQRVq2yQz6DZ24,Bala Belediyesi,"Şentepe Mah İ. Melih Gökçek Cd, Şentepe, Şht. Murat Yalçın Sk. No:95, 06720 Bala/Ankara, Türkiye",39.555900099999995,33.1180151,"[""event_venue"", ""point_of_interest"", ""establishment""]",3.8,228
ChIJL7VxrUyc1BQR_q0DoL8ch0c,Bala Adliyesi,"Göztepe, Hükümet Cd. No:9, 06720 Bala/Ankara, Türkiye",39.553901499999995,33.124055999999996,"[""courthouse"", ""point_of_interest"", ""government_office"", ""establishment""]",2.6,10
ChIJM75HPred1BQRkJY9cG3xJNA,Petrol Ofisi,"Kartaltepe, Ataturk Cad No:14, 06720 Bala/Ankara, Türkiye",39.5523965,33.124049500000005,"[""gas_station"", ""point_of_interest"", ""establishment""]",4,42
ChIJxexfFACd1BQReFT_Sc-nkQQ,Aytaş alçı fabrikası rigips,"Kartaltepe, 06720 Balâ/Ankara, Türkiye",39.553374,33.123771,"[""point_of_interest"", ""establishment""]",5,2
ChIJ7weES7Od1BQRh_DiZLU7SAg,Bala Merkez Lokantası,"Göztepe, Atatürk Blv., 06720 Bala/Ankara, Türkiye",39.5536738,33.123697,"[""restaurant"", ""food"", ""point_of_interest"", ""establishment""]",3.9,339
ChIJfe_GXwqd1BQRs7Bk8RzDbVk,Bala Ankara,"Kartaltepe, Atatürk Blv. No:55, 06720 Bala/Ankara, Türkiye",39.553374,33.123771,"[""park"", ""point_of_interest"", ""establishment""]",4.8,4
ChIJcUMUrLSd1BQRNT8gBcNER0Y,Tapu Mudurlugu,"Göztepe, Hükümet Cd., 06720 Bala/Ankara, Türkiye",39.5556026,33.1233888,"[""point_of_interest"", ""establishment""]",3.3,9
ChIJM75HPred1BQRCgDqhoT8VKc,Toprak Mahsülleri Ofisi,"Göztepe, Atatürk Blv. No:57, 06720 Bala/Ankara, Türkiye",39.557501200000004,33.1201369,"[""government_office"", ""point_of_interest"", ""establishment""]",3.8,4
ChIJoZFgQK6d1BQR36Lcag97ZV8,Bala Merkez Aile Sağlığı Merkezi,"Şentepe, 06720 Balâ/Ankara, Türkiye",39.5610979,33.1099572,"[""doctor"", ""health"", ""point_of_interest"", ""establishment""]",5,1
ChIJBduStUyc1BQR-qre1-STwDs,Bala Ilce Jandarma Komutanligi,"Kartaltepe, Sanayi Cd. No:7, 06720 Bala/Ankara, Türkiye",39.553374,33.123771,"[""point_of_interest"", ""establishment""]",5,4
ChIJGa0kVLGd1BQRoo0KWJay9Wc,Trugo Charging Station,"Şentepe, 06720 Balâ/Ankara, Türkiye",39.556100199999996,33.1180411,"[""electric_vehicle_charging_station"", ""point_of_interest"", ""establishment""]",3,2
ChIJARIdCkyd1BQRFHn0WEl9TUw,3 Sayılı Bala Tarım Kredi Kooperatifi,"Şentepe Mah. Atatürk Bulvarı No:10/A Bala Ankara 3 Sayılı, Tarım Kredi Kooperatifi, Şentepe, 06720 Bala/Ankara, Türkiye",39.5619485,33.1096023,"[""corporate_office"", ""point_of_interest"", ""establishment""]",4.3,3
ChIJtb5JNHewyhQR1eRsT7S_zZs,Ziraat Bankası Bala/Ankara Şubesi,"Kartaltepe, Alparslan Türkeş Blv. No:2, 06720 Bala/Ankara, Türkiye",39.5532038,33.1238041,"[""bank"", ""finance"", ""point_of_interest"", ""establishment""]",1.4,16
ChIJ5VaoTLid1BQRRCgA4h7YoeQ,Abdullah Cevdet İmirzalıoğlu Bala İlçe Hastanesi Acil Servis,"Şentepe, Atatürk Blv., 06720 Bala/Ankara, Türkiye",39.560981999999996,33.110887999999996,"[""health"", ""point_of_interest"", ""establishment""]",3.7,3
ChIJ2ds1tLWd1BQRYnL7_nDIhAk,Bala İlçe Stadyum,"Göztepe, 06726 Balâ/Ankara, Türkiye",39.5580589,33.1198778,"[""stadium"", ""sports_complex"", ""event_venue"", ""sports_activity_location"", ""point_of_interest"", ""establishment""]",3.8,25
ChIJE8yRu7Sd1BQRCBs5lvt1gvM,BİM,"Göztepe, Atatürk Blv. No: 63, 06720 Bala/Ankara, Türkiye",39.5555419,33.1228043,"[""supermarket"", ""grocery_store"", ""food_store"", ""store"", ""food"", ""point_of_interest"", ""establishment""]",4.7,9
ChIJn-t9VLSd1BQR61JWtxskBr0,Bala İlçe Milli Eğitim Müdürlüğü,"Göztepe, 06726 Balâ/Ankara, Türkiye",39.557641,33.1207679,"[""point_of_interest"", ""establishment""]",5,1
ChIJtf-Hs0yc1BQR06-LjT5ZBW0,Bala Tapu Sicil Müdürlüğü,"Kartaltepe, 06720 Balâ/Ankara, Türkiye",39.553539,33.1241242,"[""government_office"", ""point_of_interest"", ""establishment""]",4,2
ChIJs5hYYE2c1BQRS6L5jvOOgoA,Bala Anadolu Lisesi,"Kartaltepe, Alparslan Türkeş Bul. No:43, 06720 Bala/Ankara, Türkiye",39.5496902,33.1254844,"[""secondary_school"", ""school"", ""point_of_interest"", ""establishment""]",,
ChIJX2JMW02c1BQR9Bj1awUM124,Tinaztepe Ilkokulu ve Ortaokulu,"Kartaltepe, Alparslan Türkeş Blv. No:55, 06720 Bala/Ankara, Türkiye",39.550049,33.1253974,"[""school"", ""point_of_interest"", ""establishment""]",,
ChIJiQUcUbOd1BQRvDHv8ZoExvk,Bala Toplum Sağliği Merkezi,"Göztepe, Atatürk Blv. No:18, 06720 Bala/Ankara, Türkiye",39.55435790000001,33.1235219,"[""health"", ""point_of_interest"", ""establishment""]",,
ChIJp5ZArZ2Z1BQRhPpWAo1eoVA,Üçem Köyü Cami,"Üçem, 06720 Balâ/Ankara, Türkiye",39.559964,33.2165599,"[""mosque"", ""place_of_worship"", ""point_of_interest"", ""establishment""]",5,10
ChIJ0YZBLp2Z1BQRkaMSSk9JXw4,Üçem Köyü Mezarlığı,"Üçem, 06720 Balâ/Ankara, Türkiye",39.5580042,33.2163093,"[""cemetery"", ""point_of_interest"", ""establishment""]",,
ChIJZ-XU7pyZ1BQRQv9Yqq4rimg,Üçem,"Üçem, 06720 Balâ/Ankara, Türkiye",39.558188,33.217552,"[""bus_stop"", ""transit_station"", ""point_of_interest"", ""establishment""]",,
ChIJAQAAQJ2Z1BQRMtF4WqY7SBw,Ucem Koyu Muhtarligi,"Merkez, Üçem Köyü, Bala, Ankara, Üçem, 06720 Bala/Ankara, Türkiye",39.558631299999995,33.2152557,"[""point_of_interest"", ""establishment""]",3.3,3
ChIJEWjIbdSb1BQReVxpk6m6QnI,Üçem 1 Kpr.,"Üçem, 06720 Balâ/Ankara, Türkiye",39.546037999999996,33.209907799999996,"[""point_of_interest"", ""establishment""]",4,2
ChIJAQAATJ2Z1BQRZx0QNRcRnTU,Cemetery,"Üçem, 06720 Balâ/Ankara, Türkiye",39.5578788,33.214904499999996,"[""cemetery"", ""point_of_interest"", ""establishment""]",,
ChIJnZC16JyZ1BQRJoiunbTh7Xk,Üçem,"Üçem, 06720 Balâ/Ankara, Türkiye",39.558203999999996,33.217447,"[""bus_stop"", ""transit_station"", ""point_of_interest"", ""establishment""]",5,1
ChIJ7zEuEMiZ1BQRhRY2BuYGGiA,Büyük Boyalık Köyü Mezarlığı,"Büyükboyalık, 06720 Balâ/Ankara, Türkiye",39.5696862,33.2373779,"[""cemetery"", ""point_of_interest"", ""establishment""]",,
ChIJHZEYbLiZ1BQRj8wWtCfqIuI,Büyük Boyalık Cami,"Büyükboyalık, 06720 Balâ/Ankara, Türkiye",39.567904,33.2353501,"[""mosque"", ""place_of_worship"", ""point_of_interest"", ""establishment""]",4.6,10
ChIJNb9_H7mZ1BQRwUMBG6nAdYA,Buyukboyalik Ilkogretim Okulu,"Büyükboyalık, Bala Karakeçili Yolu Pk:06720, 06720 Bala/Ankara, Türkiye",39.5564648,33.2434562,"[""primary_school"", ""school"", ""point_of_interest"", ""establishment""]",,
ChIJ4fBP-emZ1BQR7IHdF7xhRSQ,Market,"Büyükboyalık, Bala Karakeçili Yolu, 06720 Bala/Ankara, Türkiye",39.5576985,33.242248499999995,"[""grocery_store"", ""point_of_interest"", ""food_store"", ""store"", ""food"", ""establishment""]",4.5,4
ChIJyS3_9-mZ1BQRIs3xQ5mzmeo,Öztürk Un,"Büyükboyalık, Bala Karakeçili Yolu, 06720 Bala/Ankara, Türkiye",39.557533,33.241963,"[""point_of_interest"", ""establishment""]",3.7,3
ChIJ68QMeD-Z1BQRIoCYAbqZJhk,Savran Tarım,"Büyükboyalık, D260, 06720 Bala/Ankara, Türkiye",39.559672299999995,33.2486067,"[""point_of_interest"", ""establishment""]",5,2
ChIJ7y5WGeqZ1BQRWrGgcK-35FE,Büyük Boyalık Köyü 2,"Büyükboyalık, 06720 Balâ/Ankara, Türkiye",39.557379999999995,33.24156,"[""bus_stop"", ""transit_station"", ""point_of_interest"", ""establishment""]",,
ChIJwxMDH-qZ1BQRmtzigwO6RTM,Büyük Boyalık Köyü 1,"Büyükboyalık, 06720 Balâ/Ankara, Türkiye",39.55717,33.24173,"[""bus_stop"", ""transit_station"", ""point_of_interest"", ""establishment""]",2,1
ChIJYZDbG3eZ1BQRoANPSYlaS1k,Öztürk Yapı Malzemeleri | Bala Kepçe | Bala Çimento | Bala Beton | Bala Kiremit,"Büyükboyalık, Küme Evleri No: 12, 06720 Bala/Ankara, Türkiye",39.557255999999995,33.242112899999995,"[""point_of_interest"", ""store"", ""establishment""]",5,6
ChIJ6eQ2SceZ1BQRUihBIk0ugp4,Büyük Boyalık So-asm,"Büyükboyalık, 06720 Balâ/Ankara, Türkiye",39.5645983,33.2373925,"[""health"", ""point_of_interest"", ""establishment""]",,
ChIJLyzjcriZ1BQR0_Ab09mG3kc,Büyükboyalik,"Büyükboyalık, 06720 Balâ/Ankara, Türkiye",39.568073,33.235785,"[""bus_stop"", ""transit_station"", ""point_of_interest"", ""establishment""]",,
ChIJQ5CNcriZ1BQRJ8sg2lVdu1c,Büyükboyalik,"Büyükboyalık, 06720 Balâ/Ankara, Türkiye",39.568098,33.235696,"[""bus_stop"", ""transit_station"", ""point_of_interest"", ""establishment""]",,
ChIJcf-tzokA0xQRbrJUbLW52bQ,Babayakup Köyü Cami,"Babayakup, 06900 Polatlı/Ankara, Türkiye",39.595315,32.4023551,"[""mosque"", ""place_of_worship"", ""point_of_interest"", ""establishment""]",4.4,21
ChIJORmqjT8B0xQRXoe2wfX1LQA,"Sarphan Heaven Hobi Bahçeleri - Ankara, Polatlı , Temelli , Babayakup - Temelli Hobi Bahçeleri","POLATLI, Babayakup, 06900 Polatlı/Ankara, Türkiye",39.5904995,32.3931361,"[""garden"", ""park"", ""point_of_interest"", ""establishment""]",,
ChIJPcJKzoYA0xQRZhKZu3_e8cw,Maden Ocağı,"Babayakup, 06900 Polatlı/Ankara, Türkiye",39.587658,32.4050551,"[""point_of_interest"", ""establishment""]",,
ChIJbYhyGogA0xQRTKqUsNUUP70,Babayakup Köyü Mezarlığı,"Babayakup, 06900 Polatlı/Ankara, Türkiye",39.5928779,32.401496699999996,"[""cemetery"", ""point_of_interest"", ""establishment""]",3.5,2
ChIJq4ZycrUB0xQRlYyOjRvYdAE,Ankara Polatlı Babayakup Para Kontrol Cihazı,"Babayakup Mah No: 94189, Babayakup, 06900 Polatlı/Ankara, Türkiye",39.593855999999995,32.402298,"[""wholesaler"", ""store"", ""point_of_interest"", ""establishment""]",5,1
ChIJh_4HOQIB0xQR5sRP0M-o2KI,Sarı Tarım Hayvancılık,"Babayakup, 06700 Polatlı/Ankara, Türkiye",39.591076699999995,32.4041511,"[""point_of_interest"", ""establishment""]",,
ChIJVfKLvnw70xQRDHjzz6hQ89o,HÖBBA / Nazif Baba'nın Çiftliği,"Oyaca Akarsu, Atatürk Cd. No: 114/B, 06830 Gölbaşı/Ankara, Türkiye",39.571092,32.5909804,"[""ranch"", ""farm"", ""food"", ""point_of_interest"", ""government_office"", ""establishment""]",4.9,11
ChIJfybev5QJ0xQRwb5GcC-15Lg,Komagene Etsiz Çiğ Köfte,"Karapürçek, 340. Caddesi No:18/D, 06830 Altındağ/Ankara, Türkiye",39.5750105,32.5813919,"[""restaurant"", ""food"", ""point_of_interest"", ""establishment""]",,
ChIJf9CCubcJ0xQRdGZNyJgeTs4,Komagene Etsiz Çiğ Köfte,"Beşikkaya, 1916. Cd 14/D, 06860 Altındağ/Ankara, Türkiye",39.582980899999995,32.5645391,"[""restaurant"", ""food"", ""point_of_interest"", ""establishment""]",,
ChIJHXTtXQAN0xQRn5Ph497VkFg,Büyük bahçe ikizce,"İkizce, 06830 Gölbaşı/Ankara, Türkiye",39.587785000000004,32.6284564,"[""farm"", ""point_of_interest"", ""establishment""]",,
ChIJyxHkUI4L0xQRlZhyW5cypqM,Esenbel Konutları,"İkizce, Esenbel Konutları, 06830 Gölbaşı/Ankara, Türkiye",39.574168,32.657168,"[""point_of_interest"", ""establishment""]",4.8,23
ChIJn6qYWvAL0xQR-qunzdxM7V8,İKİZCE KOOPERATİF-ÇINAR SİTESİ,"İkizce, 06830 Gölbaşı/Ankara, Türkiye",39.5702816,32.6589406,"[""condominium_complex"", ""point_of_interest"", ""establishment""]",5,6
ChIJ_3XtQEcL0xQRYhnVd2irBVs,Ikizce küme evleri,"İkizce, 06830 Gölbaşı/Ankara, Türkiye",39.5708714,32.6609316,"[""garden"", ""park"", ""point_of_interest"", ""establishment""]",,
ChIJra_ZcmgM0xQRf5erZzsx1u0,İkizler Köyü Cami,"İkizce, 06860 Gölbaşı/Ankara, Türkiye",39.5937799,32.661176399999995,"[""mosque"", ""place_of_worship"", ""point_of_interest"", ""establishment""]",4.8,16
ChIJ4Y2WEYgL0xQRnbLP_TzTONU,İkizce Çiftlik Evleri,"İkizce, Gölbaşı Haymana Yolu, 06830 Gölbaşı/Ankara, Türkiye",39.575838,32.660831,"[""point_of_interest"", ""establishment""]",4.5,13
ChIJbSdG20YN0xQRS1nbEYQKPO4,İKİZCE Sevgi Çiçeği (S.S.İkizce K.Y.Koop.) Sitesi,"İkizce, 06830 Gölbaşı/Ankara, Türkiye",39.580988999999995,32.6533387,"[""housing_complex"", ""point_of_interest"", ""establishment""]",4,1
ChIJg20wGIYL0xQR3I1fnQUpKrc,DOĞA DOSTLARI HOBİ BAHÇELERİ,"İkizce, 06830 Gölbaşı/Ankara, Türkiye",39.5725951,32.6623077,"[""garden"", ""park"", ""point_of_interest"", ""establishment""]",3.9,16
ChIJddAHWQAN0xQR0PDo4yHGq4g,Bahşili Yapı Kooperatifi Hobi Bahçeleri,"İkizce, HMH2+QV, 06830 Gölbaşı/Ankara, Türkiye",39.579488999999995,32.652175,"[""garden"", ""park"", ""point_of_interest"", ""establishment""]",5,4
ChIJ7VoFKwAL0xQRh0993n8fdbk,Müzisyenler Sitesi Hobi Bahçeleri,"İkizce, 06830 Gölbaşı/Ankara, Türkiye",39.5762019,32.646932299999996,"[""point_of_interest"", ""establishment""]",5,5
ChIJ42kYDuEN0xQRKIwdEXFQEGY,Topcuoğlu Garden,"İkizce, 06830 Gölbaşı/Ankara, Türkiye",39.5861454,32.6539912,"[""garden"", ""park"", ""point_of_interest"", ""establishment""]",5,1
ChIJqep9ZF8N0xQRIjYtEkQ7MbE,İNCE HOBBY GARDEN,"İkizce, 06000 Gölbaşı/Ankara, Türkiye",39.5827819,32.652611,"[""park"", ""point_of_interest"", ""establishment""]",,
ChIJ87pMUgAL0xQRgSfYuRPwW_0,Doga Dostlari Hobi Bahcesi Giris,"İkizce, 06830 Gölbaşı/Ankara, Türkiye",39.5708544,32.659486199999996,"[""condominium_complex"", ""point_of_interest"", ""establishment""]",,
ChIJaxO4BZUL0xQRtl-dwGlEFYw,Ateşlerin huzur bahçesi,"İkizce, HJGW+VC, 06830 Gölbaşı/Ankara, Türkiye",39.577138999999995,32.646021,"[""garden"", ""park"", ""point_of_interest"", ""establishment""]",5,5
ChIJC6H_JAAL0xQRrjUk_xPiIwU,Ağaçseven Çiftlik Evleri,"İkizce, HMG6+45, 06830 Gölbaşı/Ankara, Türkiye",39.5753438,32.6604302,"[""housing_complex"", ""point_of_interest"", ""establishment""]",,
ChIJYdqLDAAL0xQReULLAncF6As,İkizce Kır Bahçeleri Sitesi,"İkizce, HMC7+8V, 06830 Gölbaşı/Ankara, Türkiye",39.5708074,32.6647323,"[""condominium_complex"", ""point_of_interest"", ""establishment""]",,
ChIJe4lh93AM0xQRWA2AuGnEHdQ,İkizce Merkez Çıkış,"İkizce, 06830 Gölbaşı/Ankara, Türkiye",39.58379,32.659459999999996,"[""bus_stop"", ""transit_station"", ""point_of_interest"", ""establishment""]",,
ChIJV71tWgAN0xQRNtgt3vM7lok,Karaç Vill,"İkizce, 06830 Gölbaşı/Ankara, Türkiye",39.5907027,32.676429,"[""point_of_interest"", ""establishment""]",5,1
ChIJW1EY8rQN0xQRXI1N6MxmO84,İkizce Polat Hobi Bahçeleri,"İkizce, 06830 Gölbaşı/Ankara, Türkiye",39.588926,32.6753686,"[""point_of_interest"", ""establishment""]",5,1
ChIJ4wFy2wYN0xQRKjzndPy756Q,Kılıçkaya Çiftliği,"İkizce, 06830 Gölbaşı/Ankara, Türkiye",39.5945434,32.68194460000001,"[""garden"", ""park"", ""point_of_interest"", ""establishment""]",5,5
ChIJQ2s9XnYL0xQR3iOOUKjANh4,Müfret'in Bahçesi,"İkizce, D:260, 06830 Gölbaşı/Ankara, Türkiye",39.5691902,32.6658136,"[""condominium_complex"", ""point_of_interest"", ""establishment""]",,
ChIJlYYRawAN0xQRyLa16Gx1fFo,Dulkadirli Hobi Bahçeleri,"İkizce, HMH8+P5, 06830 Gölbaşı/Ankara, Türkiye",39.5793476,32.6655497,"[""condominium_complex"", ""point_of_interest"", ""establishment""]",,
ChIJcccZ53cM0xQRjky_rRAac6U,Esenbel Konutlari,"İkizce, 06830 Gölbaşı/Ankara, Türkiye",39.577162,32.660377,"[""bus_stop"", ""transit_station"", ""point_of_interest"", ""establishment""]",,
ChIJ7clE9nAM0xQRZxdWM74qZI8,İkizce Merkez Çıkış,"İkizce, 06830 Gölbaşı/Ankara, Türkiye",39.583819999999996,32.65977,"[""bus_stop"", ""transit_station"", ""point_of_interest"", ""establishment""]",,
ChIJi77tbsIL0xQRKM9qKfiZXvA,Kılaban konağı,"İkizce, HM97+P6, 06830 Gölbaşı/Ankara, Türkiye",39.5692555,32.663080799999996,"[""housing_complex"", ""point_of_interest"", ""establishment""]",5,1
ChIJqbVcPQBz0xQRsnrTFQ0f5ao,Karapınar Çeşmesi (Şifalı Su),"Karagedik Aydın, 06830 Gölbaşı/Ankara, Türkiye",39.5792194,32.7397242,"[""historical_landmark"", ""historical_place"", ""point_of_interest"", ""establishment""]",5,3
ChIJVVVVVVVy0xQRxq_8DwuZP2o,A101,"Santepark Avm, Karagedik Aydın, 06830 Gölbaşı/Ankara, Türkiye",39.5813679,32.7633036,"[""supermarket"", ""grocery_store"", ""food_store"", ""store"", ""food"", ""point_of_interest"", ""establishment""]",1,2
ChIJXxRb7C1y0xQRSPFzdSjVGN8,Karagedik Köyü Mezarlığı,"Karagedik Aydın, 06830 Gölbaşı/Ankara, Türkiye",39.5736875,32.7982389,"[""cemetery"", ""point_of_interest"", ""establishment""]",2.3,3
ChIJ75-_BCFy0xQRIq7D5dqrGBo,İlhan Petrol,"Karagedik Aydın, 06830 Gölbaşı/Ankara, Türkiye",39.583801,32.805192999999996,"[""gas_station"", ""point_of_interest"", ""establishment""]",4.4,14
ChIJB-ZD6C5y0xQRpCSA7X_w34A,Karagedik Cami,"Karagedik Aydın, 06830 Gölbaşı/Ankara, Türkiye",39.575657,32.80135,"[""mosque"", ""place_of_worship"", ""point_of_interest"", ""establishment""]",4.5,13
ChIJcX3gECZy0xQRVw43R6fih3k,Karagedik Saglik Ocagi,"Karagedik Ercan, 06830 Gölbaşı/Ankara, Türkiye",39.578537999999995,32.803775,"[""health"", ""point_of_interest"", ""establishment""]",1,1
ChIJ9ZjwRjdy0xQRt-ISzrIIcxU,Ali Güder Multi-Program High School,"Karagedik Aydın, 1. Cd., 06830 Gölbaşı/Ankara, Türkiye",39.581053,32.790955,"[""secondary_school"", ""school"", ""point_of_interest"", ""establishment""]",,
ChIJmyzRVi9y0xQRR7P7wtZNipw,Karagedik Eczanesi,"Karagedik Aydın, 06830 Gölbaşı/Ankara, Türkiye",39.5776604,32.8024073,"[""pharmacy"", ""health"", ""point_of_interest"", ""store"", ""establishment""]",3.7,3
ChIJr5JUayZy0xQRlvpgbUSePHg,Karagedik Ercan Ortaokulu,"Karagedik Ercan, 3319.Sokak no:1, 06830 Gölbaşı/Ankara, Türkiye",39.5789551,32.803902799999996,"[""school"", ""point_of_interest"", ""establishment""]",,
ChIJgXgwDyFy0xQRiKwClIVHn2Q,Best Oil,"Ercan Mah., Karagedik, Gölbaşı, Ankara, Karagedik Ercan, 06830 Gölbaşı/Ankara, Türkiye",39.584115,32.8048,"[""gas_station"", ""point_of_interest"", ""establishment""]",,
ChIJG98RagBz0xQRXHm3mkX6oK4,Karagedik Düğün Salonu,"Karagedik Aydın, Atatürk Cd., 06830 Gölbaşı/Ankara, Türkiye",39.582497599999996,32.8040563,"[""wedding_venue"", ""event_venue"", ""point_of_interest"", ""establishment""]",,
ChIJDUcYbS1y0xQR1cMd8Y_v7-Y,Enver Bektaş İlkokulu,"Karagedik Aydın, Atatürk Cd. No:62, 06830 Gölbaşı/Ankara, Türkiye",39.5719643,32.7984621,"[""primary_school"", ""school"", ""point_of_interest"", ""establishment""]",,
ChIJlUIAo6pP0xQRk6gnz7vrm4E,Karagedik Ercan Mahallesi Muhtarligi,"Karagedik Aydın, Atatürk Cd. No:24, 06830 Gölbaşı/Ankara, Türkiye",39.583896599999996,32.8044329,"[""local_government_office"", ""government_office"", ""point_of_interest"", ""establishment""]",,
ChIJJztIBi1y0xQRg1o3UWBmgII,Üit Market,"Karagedik Aydın, 06830 Gölbaşı/Ankara, Türkiye",39.572101,32.7993721,"[""grocery_store"", ""point_of_interest"", ""food_store"", ""store"", ""food"", ""establishment""]",4.5,4
ChIJe7Ei3jFy0xQReiwoiBAWVJg,Hacı Envar Bektaş Cami,"Karagedik Aydın, Evren Cd. No:49, 06830 Gölbaşı/Ankara, Türkiye",39.576607,32.796932,"[""mosque"", ""place_of_worship"", ""point_of_interest"", ""establishment""]",5,1
ChIJuyplhi9y0xQRECYXoy55ITw,Furkan Market,"Karagedik Aydın, 2. Cd. No:21, 06830 Gölbaşı/Ankara, Türkiye",39.5789304,32.799464300000004,"[""grocery_store"", ""point_of_interest"", ""food_store"", ""store"", ""food"", ""establishment""]",4.6,10
ChIJL2DMlSZy0xQRuwqDskYj1ok,Hacı Ali Ersoy Cami,"Karagedik Ercan, 06830 Gölbaşı/Ankara, Türkiye",39.581219,32.803990899999995,"[""mosque"", ""place_of_worship"", ""point_of_interest"", ""establishment""]",4.4,9
ChIJCYffJDdy0xQRAC90rXoHDoY,Ali Güder Anadolu Lisesi,"Karagedik Aydın, 06830 Gölbaşı/Ankara, Türkiye",39.58018,32.790639999999996,"[""bus_stop"", ""transit_station"", ""point_of_interest"", ""establishment""]",,
ChIJv6WD7S5y0xQRUEct7K7P72M,A-101,"Karagedik Aydın, Atatürk Cd., 06830 Gölbaşı/Ankara, Türkiye",39.5754856,32.800699200000004,"[""grocery_store"", ""point_of_interest"", ""food_store"", ""store"", ""food"", ""establishment""]",,
ChIJD1O3EyFy0xQRG5vjEHB3rQU,Karagedik Belediyesi Başkanlığı,"Karagedik Aydın Mh. Atatürk Cd. Pk:06830 Gölbaşı/ankara, Karagedik Aydın, 06830 Gölbaşı/Ankara, Türkiye",39.58379,32.804460999999996,"[""point_of_interest"", ""establishment""]",,
ChIJ1SpPnEpy0xQRuZhhS5BMW84,Karagedik Atık Su Arıtma Tesisi,"Karagedik Aydın, 06830 Gölbaşı/Ankara, Türkiye",39.5758335,32.785669,"[""point_of_interest"", ""establishment""]",3.8,4
ChIJjX-apb5x0xQRvMIRfQk3Ajo,Başkent Gölbaşı Kömür Madeni,"Karagedik Ercan, 06830 Gölbaşı/Ankara, Türkiye",39.572676099999995,32.8358951,"[""point_of_interest"", ""establishment""]",5,1
ChIJyTiTtr5x0xQRtHvzKwaXy6c,Hestaş Kömür İşletmesi,"Karagedik Ercan, 06830 Gölbaşı/Ankara, Türkiye",39.573162700000005,32.8361665,"[""place_of_worship"", ""point_of_interest"", ""establishment""]",3,1
ChIJw1i3-ONx0xQRtRKM815oxWI,Karayolları Malzeme Ocağı,"Karagedik Aydın, 06830 Gölbaşı/Ankara, Türkiye",39.5943,32.8249778,"[""local_government_office"", ""government_office"", ""point_of_interest"", ""establishment""]",5,2
ChIJW9wgOC9y0xQRSYZIFffcl00,Turan Market Manav,"Karagedik Aydın, Atatürk Cd., 06830 Gölbaşı/Ankara, Türkiye",39.578724099999995,32.802300599999995,"[""grocery_store"", ""food_store"", ""store"", ""food"", ""point_of_interest"", ""establishment""]",,
ChIJIb5IwSZy0xQRagT-QNGh1T4,Karagedik Halk Kütüphanesi,"Karagedik Aydın, 06830 Gölbaşı/Ankara, Türkiye",39.581331399999996,32.804539399999996,"[""library"", ""point_of_interest"", ""establishment""]",,
ChIJ-WbKUC9y0xQRTC52jScrVrc,Sadık Eczanesi,"Karagedik Aydın Mh. Atatürk Cd. No:42/b Pk:06830 Gölbaşı/ankara, Karagedik Aydın, 06830 Gölbaşı/Ankara, Türkiye",39.578024,32.802195,"[""pharmacy"", ""store"", ""point_of_interest"", ""health"", ""establishment""]",,
ChIJiX5L-SVy0xQR9-ga-jc_TT8,Sedal Kuyumculuk,"Karagedik Ercan, 06830 Gölbaşı/Ankara, Türkiye",39.5777815,32.8023872,"[""jewelry_store"", ""store"", ""point_of_interest"", ""establishment""]",,
ChIJMexS-iVy0xQRbFZxcmerGK8,Köşker Bakkal,"Karagedik Aydın, 06830 Gölbaşı/Ankara, Türkiye",39.578703,32.802270799999995,"[""grocery_store"", ""food_store"", ""store"", ""food"", ""point_of_interest"", ""establishment""]",,
ChIJUdkOH9Nx0xQR-qVBN0X4EiQ,KNAUF Alçı,"Ahiboz, 06830 Gölbaşı/Ankara, Türkiye",39.5835162,32.8520457,"[""general_contractor"", ""point_of_interest"", ""establishment""]",4.1,82
ChIJW-HbtjJw0xQRYT066CLovlk,Knauf Ahiboz Manufacturing Plant,"Serpmeler Mevkii No:246, Ahiboz, 06830 Gölbaşı/Ankara, Türkiye",39.5789871,32.8527488,"[""point_of_interest"", ""establishment""]",4.6,12
ChIJU7ZAGzVw0xQRGVddnmCMyHY,Emekli Petrol,"Emekli petrol, Karagedik Ercan, 06830 Gölbaşı/Ankara, Türkiye",39.5729967,32.8554333,"[""gas_station"", ""point_of_interest"", ""establishment""]",4.1,54
ChIJt2jazmWd0xQRQEOuCh0rlXo,ATACAN AKARYAKIT İNŞ.TUR.TİC.LTD.ŞTİ.,"MAHMATLI BAHÇE MAH, Ahiboz, Ankara Konya Yolu 45 KM NO:222, 06830 Gölbaşı/Ankara, Türkiye",39.588901199999995,32.853764,"[""gas_station"", ""point_of_interest"", ""establishment""]",3.6,10
ChIJo46FMO9x0xQRFi7m1ijD5Tg,Karayolları 47. Şube Şefliği Ahiboz Asfalt Plenti,"Karagedik Ercan, 06830 Gölbaşı/Ankara, Türkiye",39.576197799999996,32.846936899999996,"[""point_of_interest"", ""establishment""]",,
ChIJd3CrJutx0xQRGznKMGT3rrI,Güven Asfalt Petrol Ürünleri,"Karagedik Ercan, Unnamed Road, 06830 Gölbaşı/Ankara, Türkiye",39.5733767,32.848707399999995,"[""point_of_interest"", ""establishment""]",5,4
ChIJTZRW2IZv0xQRls_4WeK-aPI,Numune Villaları Konut Yapı Kooperatifi Küme Evleri,"Ahiboz, 06830 Gölbaşı/Ankara, Türkiye",39.5888376,32.8688461,"[""housing_complex"", ""point_of_interest"", ""establishment""]",4,2
ChIJ_9kAqS5v0xQRwmH3b0ntiGM,Şaşmazlar Fabrika,"Ahiboz mahallesi No:, Ahiboz, D:248, 06830 Gölbaşı/Ankara, Türkiye",39.5935189,32.8531045,"[""point_of_interest"", ""establishment""]",5,10
ChIJOaqZEDVw0xQR6SBJvfDroBc,Bizimgaz-emekli Petrol,"Karagedik Ercan, Ankara Konya Yolu, 06830 Gölbaşı/Ankara, Türkiye",39.572417,32.855438,"[""gas_station"", ""point_of_interest"", ""establishment""]",3,1
ChIJ_ysbwixu0xQR_bD_zo7fKHM,Termo - Göçer Petrol,"Ahiboz, Yolu 45/km D:154/1, 06830 Gölbaşı/Ankara, Türkiye",39.5962177,32.8514635,"[""gas_station"", ""ranch"", ""farm"", ""point_of_interest"", ""establishment""]",3.6,5
ChIJdYMVGzVw0xQRKLxc_xXgxT0,Termo Karagedik Ercan Mh.,"Karagedik Ercan, Ankara Konya Yolu, 06830 Gölbaşı/Ankara, Türkiye",39.572981999999996,32.8554615,"[""gas_station"", ""point_of_interest"", ""establishment""]",,
ChIJD2HbHDVw0xQR7pHtK2bbzd0,Termopet,"Ahiboz Mah., Gölbaşı Merkez, Gölbaşı, Ankara, Karagedik Ercan, 06830 Gölbaşı/Ankara, Türkiye",39.572787999999996,32.855624999999996,"[""car_repair"", ""point_of_interest"", ""establishment""]",,
ChIJ95KU4jRw0xQRMsrm2GNwa74,Mescit,"Karagedik Aydın, 06830 Gölbaşı/Ankara, Türkiye",39.573042,32.855585,"[""mosque"", ""place_of_worship"", ""point_of_interest"", ""establishment""]",5,2
ChIJc5UqyCxw0xQRYtBk9xibj_c,Alçı Fabrikası,"Ahiboz, 06830 Gölbaşı/Ankara, Türkiye",39.583847999999996,32.85411,"[""bus_stop"", ""transit_station"", ""point_of_interest"", ""establishment""]",,
ChIJuWTSLdNx0xQRtiW4bF56oRM,Mina Alçı,"Ahiboz, 06830 Gölbaşı/Ankara, Türkiye",39.583408000000006,32.8532641,"[""point_of_interest"", ""establishment""]",4,2
ChIJaTsNKS1w0xQReUJsBnetWVE,Alçı Fabrikası,"Ahiboz, 06830 Gölbaşı/Ankara, Türkiye",39.58255,32.85402,"[""bus_stop"", ""transit_station"", ""point_of_interest"", ""establishment""]",,
ChIJbcuHOi1w0xQRJh4bcpu7p6E,Alçı Fabrikası,"Ahiboz, 06830 Gölbaşı/Ankara, Türkiye",39.581914999999995,32.85432,"[""transit_station"", ""point_of_interest"", ""establishment""]",,
ChIJW6pO72Fx0xQRRSWi_eMS0vc,Dkt insaat golbasi tesisleri,"Ahiboz, Ankara Konya Yolu, 06830 Gölbaşı/Ankara, Türkiye",39.5823782,32.846625599999996,"[""corporate_office"", ""point_of_interest"", ""establishment""]",4.3,3
ChIJlYIVOkhl0xQRstGThS-NaXo,Cemre Life Bahçeleri,"Günalan köyü .Suyolu sok 124440 ada 16 parsel, Günalan, 06830 Gölbaşı/Ankara, Türkiye",39.5874902,32.9142423,"[""real_estate_agency"", ""point_of_interest"", ""establishment""]",5,3
ChIJV7auNwBl0xQR-Bxwhp1CClQ,TEKNO ALT KOPARATİF,"Günalan, HWR8+5M, 06830 Gölbaşı/Ankara, Türkiye",39.590441999999996,32.916739,"[""housing_complex"", ""point_of_interest"", ""establishment""]",,
ChIJV3YOPABl0xQRi0d5qWRGNps,Gazelle 1 Kasabası,"Karaali Yazlık, 06830 Gölbaşı/Ankara, Türkiye",39.59150760000001,32.9310465,"[""garden"", ""park"", ""point_of_interest"", ""establishment""]",,
ChIJV5-f8oNk0xQRD0345NmFUWY,Suener GES,"Karaali Yazlık, 06830 Beynam/Gölbaşı/Ankara, Türkiye",39.5796548,32.9838941,"[""point_of_interest"", ""establishment""]",,
ChIJwTUtOAuf1BQRaWuz-sC_bvA,Hafta Sonu Evleri,"Şentepe, Unnamed Road, Şentepe, 06720 Bala/Ankara, Türkiye",39.5902622,33.085377,"[""condominium_complex"", ""point_of_interest"", ""establishment""]",4.9,7
ChIJO7R5xHWd1BQRJHd6V-RfZRk,Ersoy Çoruk,"Şentepe, Küme Evleri No : 4, 06720 Bala/Ankara, Türkiye",39.5874993,33.0860338,"[""farm"", ""point_of_interest"", ""establishment""]",,
ChIJ0b9m3iyd1BQRJ4OAew-HtZ4,SAYFAT Çiftliği ( Serkan Sekmen),"Şentepe, 06720 Balâ/Ankara, Türkiye",39.5836454,33.0885649,"[""point_of_interest"", ""establishment""]",5,1
ChIJk07jCbOd1BQRbCAyNGzScS4,Aytas Alci,"Aşıkoğlu, Bala Yolu 22. Km., 06720 Bala/Ankara, Türkiye",39.577235,33.106128,"[""general_contractor"", ""point_of_interest"", ""establishment""]",3.2,17
ChIJMQw5Vlqd1BQRkb7pGCyAN8s,Gazi Mustafa Kemal Besi Çiftliği,"Aşıkoğlu, 06720 Balâ/Ankara, Türkiye",39.5789109,33.1074222,"[""ranch"", ""farm"", ""point_of_interest"", ""food"", ""establishment""]",2.7,3
ChIJp7OTxg6e1BQRfCtgsca2MX0,Bala Kutlu Doğum Hatıra Ormanı,"Aşıkoğlu, 06720 Balâ/Ankara, Türkiye",39.5908856,33.0940218,"[""park"", ""point_of_interest"", ""establishment""]",4.6,8
ChIJq_hLxgue1BQRP6j9mZdKpbs,Aşıkoğlu,"Aşıkoğlu, 06720 Balâ/Ankara, Türkiye",39.58915,33.096947,"[""bus_stop"", ""transit_station"", ""point_of_interest"", ""establishment""]",,
ChIJi7JGzgue1BQRIhXNvufVBv0,Aşıkoğlu,"Aşıkoğlu, 06720 Balâ/Ankara, Türkiye",39.589023,33.096621,"[""bus_stop"", ""transit_station"", ""point_of_interest"", ""establishment""]",,
ChIJ21ZXRuCd1BQROgbMIg9Mf5U,Gmk besi ve tarım hayvancılık,"de sağda, Bala, ankara yolu üzeri 1. km, 06720 Bala/Ankara, Türkiye",39.5790358,33.107361,"[""ranch"", ""farm"", ""government_office"", ""point_of_interest"", ""food"", ""establishment""]",,
